State,District,Latitude,Longitude,District code,Population,Sex_ratio,Literacy_rate,Male_Literacy_rate,Female_Literacy_rate,SC_ratio,ST_ratio,Worker_ratio,Male_Worker_ratio,Female_Worker_ratio,Main_Worker_ratio,Marginal_Worker_ratio,Non_Worker_ratio,Hindu_ratio,Muslim_ratio,Christian_ratio,Sikh_ratio,Buddhist_ratio,Jain_ratio,Other_religion_ratio,Religion_not_stated_ratio,Households_with_electricity_ratio,Households_with_LPG_ratio,Households_with_internet_ratio,Households_with_computer_ratio,Rural_household_ratio,Urban_household_ratio,Households_with_bicycle_ratio,Households_with_car_ratio,Households_with_radio_ratio,Households_with_scooter_ratio,Households_with_tv_ratio,Households_with_phone_ratio,Below_primary_ratio,Primary_ratio,Middle_ratio,Secondary_ratio,Higher_ratio,Graduate_ratio,Other_education_ratio,Illiteracy_rate,Age_0_29_ratio,Age_30_49_ratio,Age_50_ratio,Age_not_stated_ratio,Tapwater_ratio,Handpump_ratio,Wellwater_ratio,Springwater_ratio,Riverwater_ratio,Households_with_latrine_ratio,Households_with_bathing_facility_ratio,Low_income_ratio,Middle_income_ratio,High_income_ratio,Power_Parity_Less_than_Rs_45000_ratio,Power_Parity_Rs_45000_90000_ratio,Power_Parity_Rs_90000_150000_ratio,Power_Parity_Rs_45000_150000_ratio,Power_Parity_Rs_150000_240000_ratio,Power_Parity_Rs_240000_330000_ratio,Power_Parity_Rs_150000_330000_ratio,Power_Parity_Rs_330000_425000_ratio,Power_Parity_Rs_425000_545000_ratio,Power_Parity_Rs_330000_545000_ratio,Power_Parity_Above_Rs_545000_ratio
Andhra Pradesh,Adilabad,19.284513950073435,78.81321233480176,532,2741239,1001.0,54.0,63.0,46.0,18.0,18.0,48.0,55.0,42.0,81.0,19.0,52.0,88.0,10.0,1.0,0.0,1.0,0.0,0.0,1.0,69.0,24.0,1.0,6.0,73.0,27.0,18.0,1.0,3.0,12.0,37.0,49.0,10.0,14.0,12.0,10.0,6.0,4.0,1.0,43.0,56.0,26.0,15.0,3.0,33.0,33.0,11.0,0.0,0.0,23.0,46.0,15.0,69.0,3.0,15.0,38.0,30.0,69.0,2.0,3.0,5.0,3.0,5.0,8.0,3.0
Andhra Pradesh,Anantapur,14.312065561843148,77.4601584478577,553,4081148,977.0,57.0,65.0,48.0,14.0,4.0,50.0,59.0,41.0,82.0,18.0,50.0,88.0,11.0,1.0,0.0,0.0,0.0,0.0,0.0,72.0,18.0,1.0,4.0,73.0,27.0,17.0,1.0,5.0,12.0,45.0,47.0,12.0,19.0,15.0,9.0,4.0,4.0,1.0,36.0,54.0,27.0,18.0,1.0,66.0,9.0,0.0,0.0,0.0,28.0,61.0,17.0,67.0,4.0,17.0,39.0,28.0,67.0,2.0,3.0,5.0,3.0,5.0,8.0,4.0
Andhra Pradesh,Chittoor,13.33109263067696,78.92763898886037,554,4174064,997.0,64.0,71.0,57.0,19.0,4.0,46.0,58.0,35.0,86.0,14.0,54.0,90.0,10.0,1.0,0.0,0.0,0.0,0.0,0.0,72.0,25.0,1.0,5.0,70.0,30.0,17.0,1.0,7.0,14.0,47.0,49.0,12.0,18.0,16.0,13.0,6.0,6.0,1.0,28.0,51.0,28.0,19.0,1.0,64.0,10.0,1.0,0.0,0.0,29.0,58.0,17.0,65.0,5.0,17.0,38.0,26.0,65.0,4.0,2.0,7.0,3.0,4.0,6.0,5.0
Andhra Pradesh,East Godavari,16.782718320784902,82.2432074720511,545,5154296,1006.0,64.0,67.0,61.0,18.0,4.0,41.0,60.0,21.0,83.0,17.0,59.0,97.0,2.0,2.0,0.0,0.0,0.0,0.0,0.0,81.0,30.0,1.0,6.0,75.0,25.0,49.0,2.0,7.0,14.0,51.0,46.0,13.0,19.0,16.0,10.0,5.0,5.0,1.0,30.0,53.0,29.0,18.0,0.0,57.0,21.0,8.0,0.0,0.0,50.0,54.0,18.0,67.0,4.0,18.0,40.0,27.0,67.0,3.0,2.0,5.0,3.0,4.0,7.0,4.0
Andhra Pradesh,Guntur,15.884925767634847,80.58657614107885,548,4887813,1003.0,61.0,67.0,54.0,20.0,5.0,49.0,59.0,38.0,88.0,12.0,51.0,86.0,11.0,2.0,0.0,0.0,0.0,0.0,0.0,75.0,41.0,1.0,5.0,68.0,32.0,29.0,1.0,7.0,12.0,52.0,46.0,16.0,18.0,14.0,10.0,5.0,5.0,1.0,31.0,53.0,28.0,19.0,0.0,47.0,27.0,4.0,0.0,0.0,48.0,57.0,16.0,66.0,5.0,16.0,38.0,28.0,66.0,3.0,3.0,6.0,3.0,5.0,8.0,5.0
Andhra Pradesh,Hyderabad,17.38971555555556,78.46668888888888,536,3943323,954.0,73.0,76.0,70.0,6.0,1.0,36.0,52.0,19.0,78.0,22.0,64.0,52.0,43.0,2.0,0.0,0.0,0.0,0.0,2.0,82.0,55.0,14.0,26.0,0.0,100.0,22.0,12.0,27.0,41.0,70.0,75.0,6.0,15.0,17.0,20.0,13.0,14.0,1.0,14.0,57.0,27.0,14.0,2.0,81.0,1.0,0.0,0.0,0.0,81.0,82.0,4.0,47.0,15.0,4.0,18.0,29.0,47.0,15.0,4.0,20.0,6.0,8.0,14.0,15.0
Andhra Pradesh,Karimnagar,18.515483193277312,79.43765428571413,534,3776269,1008.0,58.0,67.0,50.0,19.0,3.0,50.0,56.0,44.0,85.0,15.0,50.0,92.0,6.0,1.0,0.0,0.0,0.0,0.0,0.0,80.0,30.0,1.0,4.0,75.0,25.0,35.0,1.0,3.0,17.0,51.0,59.0,9.0,13.0,13.0,13.0,8.0,7.0,1.0,36.0,51.0,27.0,19.0,2.0,58.0,12.0,11.0,0.0,0.0,39.0,58.0,18.0,68.0,4.0,18.0,41.0,27.0,68.0,2.0,2.0,4.0,2.0,3.0,6.0,4.0
Andhra Pradesh,Khammam,17.683921325051784,80.67008643892335,541,2797370,1011.0,58.0,65.0,52.0,17.0,27.0,50.0,58.0,43.0,86.0,14.0,50.0,93.0,6.0,1.0,0.0,0.0,0.0,0.0,0.0,77.0,25.0,1.0,5.0,77.0,23.0,31.0,1.0,4.0,13.0,48.0,49.0,12.0,14.0,14.0,10.0,6.0,7.0,1.0,36.0,55.0,28.0,17.0,1.0,54.0,24.0,5.0,0.0,1.0,41.0,46.0,19.0,68.0,3.0,19.0,41.0,26.0,68.0,2.0,2.0,4.0,2.0,4.0,6.0,3.0
Andhra Pradesh,Krishna,16.143872753151673,81.14805061000413,547,4517398,992.0,67.0,71.0,63.0,19.0,3.0,45.0,59.0,32.0,85.0,15.0,55.0,89.0,7.0,3.0,0.0,0.0,0.0,0.0,1.0,79.0,43.0,2.0,7.0,62.0,38.0,36.0,2.0,8.0,14.0,54.0,50.0,14.0,15.0,14.0,12.0,7.0,7.0,1.0,30.0,52.0,28.0,18.0,1.0,61.0,14.0,6.0,0.0,0.0,58.0,61.0,15.0,66.0,5.0,15.0,37.0,29.0,66.0,4.0,3.0,6.0,3.0,4.0,8.0,5.0
Andhra Pradesh,Kurnool,15.43759715142429,77.90086836581717,552,4053463,988.0,52.0,61.0,44.0,18.0,2.0,50.0,57.0,43.0,87.0,13.0,50.0,82.0,17.0,1.0,0.0,0.0,0.0,0.0,0.0,75.0,18.0,1.0,5.0,72.0,28.0,25.0,1.0,7.0,11.0,50.0,52.0,14.0,18.0,12.0,7.0,4.0,3.0,1.0,41.0,58.0,26.0,15.0,1.0,64.0,13.0,2.0,1.0,1.0,32.0,64.0,20.0,66.0,3.0,20.0,41.0,26.0,66.0,2.0,2.0,4.0,3.0,4.0,6.0,3.0
Andhra Pradesh,Mahbubnagar,16.639546224256293,77.98933089244859,538,4053028,977.0,48.0,56.0,39.0,17.0,9.0,51.0,56.0,47.0,87.0,13.0,49.0,91.0,8.0,1.0,0.0,0.0,0.0,0.0,1.0,75.0,14.0,1.0,6.0,84.0,16.0,15.0,1.0,6.0,12.0,36.0,56.0,11.0,16.0,12.0,8.0,5.0,3.0,0.0,44.0,58.0,25.0,16.0,1.0,67.0,16.0,1.0,0.0,0.0,23.0,50.0,23.0,69.0,2.0,23.0,45.0,24.0,69.0,1.0,1.0,3.0,1.0,2.0,3.0,2.0
Andhra Pradesh,Medak,17.889304978038055,78.13778901903379,535,3033288,992.0,54.0,63.0,45.0,18.0,6.0,48.0,55.0,40.0,83.0,17.0,52.0,87.0,11.0,1.0,0.0,0.0,0.0,0.0,1.0,77.0,21.0,1.0,6.0,75.0,25.0,29.0,2.0,9.0,15.0,44.0,61.0,10.0,16.0,15.0,12.0,6.0,4.0,1.0,37.0,57.0,26.0,17.0,0.0,63.0,19.0,1.0,0.0,0.0,37.0,53.0,20.0,69.0,3.0,20.0,43.0,26.0,69.0,2.0,2.0,4.0,2.0,3.0,4.0,3.0
Andhra Pradesh,Nalgonda,17.113250515463907,79.16984453608244,539,3488809,983.0,57.0,66.0,49.0,18.0,11.0,50.0,55.0,44.0,86.0,14.0,50.0,93.0,5.0,1.0,0.0,0.0,0.0,0.0,0.0,77.0,22.0,1.0,5.0,81.0,19.0,28.0,2.0,4.0,14.0,45.0,57.0,11.0,15.0,14.0,11.0,7.0,6.0,1.0,37.0,55.0,26.0,19.0,0.0,58.0,16.0,3.0,0.0,0.0,35.0,47.0,22.0,68.0,3.0,22.0,43.0,25.0,68.0,1.0,2.0,3.0,2.0,3.0,5.0,3.0
Andhra Pradesh,Nizamabad,18.429485849056604,78.07523490566035,533,2551335,1040.0,54.0,63.0,46.0,15.0,8.0,49.0,55.0,44.0,84.0,16.0,51.0,83.0,15.0,1.0,0.0,0.0,0.0,0.0,0.0,76.0,26.0,1.0,5.0,78.0,22.0,30.0,1.0,7.0,14.0,43.0,60.0,9.0,15.0,12.0,14.0,8.0,5.0,0.0,37.0,55.0,27.0,17.0,1.0,63.0,16.0,1.0,0.0,0.0,34.0,60.0,19.0,69.0,3.0,19.0,42.0,27.0,69.0,2.0,2.0,3.0,2.0,3.0,5.0,3.0
Andhra Pradesh,Prakasam,15.489039001601704,80.11665790176184,549,3397448,981.0,56.0,65.0,47.0,23.0,4.0,50.0,58.0,42.0,86.0,14.0,50.0,93.0,6.0,1.0,0.0,0.0,0.0,0.0,0.0,70.0,27.0,1.0,4.0,80.0,20.0,21.0,1.0,4.0,10.0,43.0,45.0,16.0,16.0,12.0,8.0,5.0,4.0,1.0,39.0,54.0,27.0,19.0,0.0,44.0,23.0,8.0,0.0,0.0,30.0,49.0,20.0,69.0,3.0,20.0,43.0,26.0,69.0,2.0,2.0,4.0,2.0,3.0,4.0,3.0
Andhra Pradesh,Srikakulam,18.570900998697432,84.25874814010675,542,2703114,1015.0,55.0,64.0,47.0,9.0,6.0,48.0,57.0,38.0,73.0,27.0,52.0,99.0,0.0,1.0,0.0,0.0,0.0,0.0,0.0,68.0,17.0,0.0,4.0,83.0,17.0,20.0,1.0,2.0,7.0,33.0,37.0,12.0,14.0,13.0,10.0,6.0,5.0,1.0,40.0,53.0,28.0,20.0,0.0,20.0,31.0,22.0,0.0,1.0,16.0,20.0,23.0,69.0,2.0,23.0,45.0,24.0,69.0,2.0,1.0,3.0,1.0,2.0,3.0,2.0
Andhra Pradesh,Vizianagaram,18.28329696032972,83.45982854198873,543,2344474,1019.0,53.0,61.0,45.0,11.0,10.0,49.0,58.0,40.0,82.0,18.0,51.0,98.0,1.0,1.0,0.0,0.0,0.0,0.0,0.0,70.0,19.0,1.0,3.0,79.0,21.0,22.0,1.0,4.0,8.0,37.0,35.0,11.0,13.0,11.0,8.0,5.0,5.0,1.0,45.0,51.0,28.0,19.0,1.0,35.0,33.0,10.0,1.0,0.0,18.0,32.0,20.0,68.0,3.0,20.0,42.0,26.0,68.0,1.0,2.0,4.0,2.0,4.0,6.0,3.0
Andhra Pradesh,Warangal,18.01752608695651,79.87422028985509,540,3512576,997.0,59.0,67.0,50.0,18.0,15.0,49.0,55.0,42.0,85.0,15.0,51.0,93.0,6.0,1.0,0.0,0.0,0.0,0.0,0.0,79.0,23.0,1.0,6.0,72.0,28.0,30.0,2.0,7.0,13.0,44.0,54.0,9.0,13.0,13.0,13.0,8.0,7.0,1.0,35.0,54.0,27.0,19.0,0.0,57.0,17.0,6.0,0.0,0.0,37.0,48.0,20.0,66.0,4.0,20.0,41.0,25.0,66.0,3.0,2.0,5.0,2.0,3.0,6.0,4.0
Andhra Pradesh,West Godavari,16.63297943925236,81.45912990654196,546,3936966,1004.0,67.0,70.0,65.0,21.0,3.0,45.0,61.0,29.0,87.0,13.0,55.0,95.0,2.0,3.0,0.0,0.0,0.0,0.0,0.0,81.0,35.0,1.0,4.0,80.0,20.0,48.0,1.0,6.0,15.0,52.0,46.0,16.0,19.0,15.0,11.0,6.0,5.0,1.0,27.0,52.0,29.0,19.0,0.0,72.0,10.0,2.0,0.0,1.0,55.0,57.0,18.0,68.0,4.0,18.0,41.0,27.0,68.0,2.0,2.0,4.0,2.0,3.0,6.0,4.0
Arunachal Pradesh,Changlang,27.36048479338845,96.37552644628106,253,148226,926.0,49.0,57.0,41.0,0.0,36.0,42.0,51.0,33.0,81.0,19.0,58.0,32.0,1.0,24.0,0.0,34.0,0.0,8.0,0.0,37.0,12.0,0.0,4.0,84.0,16.0,33.0,3.0,17.0,6.0,23.0,27.0,15.0,16.0,13.0,7.0,4.0,3.0,1.0,42.0,65.0,24.0,11.0,0.0,31.0,23.0,9.0,2.0,4.0,49.0,24.0,15.0,66.0,1.0,15.0,46.0,20.0,66.0,8.0,6.0,14.0,2.0,2.0,3.0,1.0
Arunachal Pradesh,East Kameng,27.371194055944056,93.04741486013997,247,78690,1029.0,49.0,56.0,42.0,0.0,92.0,40.0,42.0,38.0,86.0,14.0,60.0,16.0,1.0,47.0,0.0,1.0,0.0,35.0,0.0,27.0,18.0,0.0,4.0,74.0,26.0,4.0,3.0,11.0,7.0,16.0,21.0,15.0,14.0,12.0,8.0,6.0,3.0,0.0,42.0,68.0,23.0,9.0,0.0,57.0,0.0,2.0,7.0,7.0,24.0,23.0,15.0,66.0,1.0,15.0,46.0,20.0,66.0,8.0,6.0,14.0,2.0,2.0,3.0,1.0
Arunachal Pradesh,East Siang,28.15382352941176,95.06499226006191,251,99214,980.0,63.0,68.0,58.0,0.0,71.0,41.0,47.0,34.0,83.0,17.0,59.0,28.0,2.0,18.0,0.0,1.0,0.0,50.0,1.0,49.0,17.0,2.0,5.0,67.0,33.0,22.0,7.0,26.0,16.0,32.0,44.0,11.0,16.0,16.0,13.0,11.0,8.0,1.0,25.0,62.0,26.0,12.0,0.0,45.0,13.0,3.0,2.0,2.0,40.0,29.0,11.0,60.0,6.0,11.0,30.0,30.0,60.0,10.0,6.0,16.0,3.0,4.0,7.0,6.0
Arunachal Pradesh,Kurung Kumey,28.04853351800553,93.24531994459834,256,92076,1032.0,40.0,45.0,35.0,0.0,99.0,41.0,41.0,42.0,64.0,36.0,59.0,5.0,1.0,56.0,0.0,0.0,0.0,37.0,1.0,20.0,3.0,0.0,5.0,94.0,6.0,1.0,3.0,16.0,4.0,7.0,17.0,13.0,16.0,13.0,7.0,5.0,2.0,0.0,44.0,70.0,22.0,7.0,0.0,34.0,1.0,5.0,18.0,12.0,21.0,11.0,15.0,66.0,1.0,15.0,46.0,20.0,66.0,8.0,6.0,14.0,2.0,2.0,3.0,1.0
Arunachal Pradesh,Lohit,27.946785273972623,96.59670770547945,259,145726,912.0,57.0,63.0,50.0,0.0,33.0,42.0,51.0,32.0,83.0,17.0,58.0,68.0,3.0,7.0,0.0,17.0,0.0,5.0,0.0,38.0,15.0,1.0,3.0,75.0,25.0,37.0,3.0,14.0,9.0,27.0,30.0,13.0,17.0,14.0,9.0,5.0,4.0,0.0,36.0,65.0,24.0,10.0,0.0,19.0,37.0,2.0,0.0,4.0,39.0,26.0,15.0,66.0,1.0,15.0,46.0,20.0,66.0,8.0,6.0,14.0,2.0,2.0,3.0,1.0
Arunachal Pradesh,Lower Dibang Valley,28.32651730103806,95.76567335640142,258,54080,928.0,59.0,64.0,53.0,0.0,48.0,41.0,50.0,32.0,89.0,11.0,59.0,53.0,4.0,17.0,0.0,5.0,0.0,19.0,1.0,37.0,19.0,1.0,5.0,75.0,25.0,28.0,4.0,17.0,13.0,27.0,41.0,12.0,17.0,15.0,12.0,8.0,6.0,0.0,30.0,65.0,25.0,10.0,0.0,44.0,16.0,1.0,1.0,5.0,39.0,31.0,15.0,66.0,1.0,15.0,46.0,20.0,66.0,8.0,6.0,14.0,2.0,2.0,3.0,1.0
Arunachal Pradesh,Lower Subansiri,27.70849297297297,93.96226108108112,255,83030,984.0,65.0,70.0,60.0,0.0,88.0,36.0,41.0,31.0,75.0,25.0,64.0,12.0,2.0,41.0,0.0,0.0,0.0,45.0,0.0,53.0,18.0,2.0,7.0,77.0,23.0,5.0,9.0,17.0,13.0,31.0,41.0,12.0,15.0,16.0,14.0,11.0,7.0,0.0,24.0,67.0,24.0,9.0,0.0,55.0,1.0,2.0,2.0,3.0,48.0,38.0,15.0,66.0,1.0,15.0,46.0,20.0,66.0,8.0,6.0,14.0,2.0,2.0,3.0,1.0
Arunachal Pradesh,Papum Pare,27.273529716981127,93.54468183962264,248,176573,980.0,69.0,74.0,63.0,0.0,66.0,37.0,46.0,28.0,78.0,22.0,63.0,32.0,3.0,48.0,0.0,3.0,0.0,13.0,1.0,60.0,45.0,5.0,15.0,40.0,60.0,8.0,13.0,12.0,17.0,46.0,54.0,11.0,16.0,15.0,14.0,12.0,10.0,1.0,22.0,68.0,25.0,7.0,0.0,50.0,1.0,5.0,2.0,3.0,51.0,46.0,11.0,60.0,6.0,11.0,30.0,30.0,60.0,10.0,6.0,16.0,3.0,4.0,7.0,6.0
Arunachal Pradesh,Tawang,27.680683962264148,91.82504245283016,245,49977,714.0,52.0,61.0,40.0,0.0,70.0,57.0,67.0,43.0,86.0,14.0,43.0,24.0,2.0,2.0,2.0,70.0,0.0,1.0,0.0,66.0,29.0,1.0,4.0,81.0,19.0,1.0,7.0,18.0,2.0,37.0,31.0,13.0,12.0,10.0,5.0,5.0,4.0,2.0,49.0,61.0,28.0,11.0,0.0,58.0,0.0,0.0,6.0,1.0,53.0,27.0,15.0,66.0,1.0,15.0,46.0,20.0,66.0,8.0,6.0,14.0,2.0,2.0,3.0,1.0
Arunachal Pradesh,Tirap,26.94406229508198,95.41470327868862,254,111975,944.0,43.0,51.0,34.0,0.0,88.0,45.0,48.0,42.0,88.0,12.0,55.0,18.0,1.0,74.0,0.0,1.0,0.0,5.0,1.0,64.0,12.0,0.0,4.0,74.0,26.0,4.0,3.0,9.0,5.0,25.0,29.0,13.0,16.0,11.0,7.0,4.0,2.0,0.0,47.0,64.0,23.0,13.0,0.0,48.0,1.0,6.0,13.0,7.0,68.0,26.0,15.0,66.0,1.0,15.0,46.0,20.0,66.0,8.0,6.0,14.0,2.0,2.0,3.0,1.0
Arunachal Pradesh,Upper Siang,28.8309244897959,95.00155765306124,252,35320,889.0,52.0,57.0,45.0,0.0,81.0,50.0,53.0,46.0,82.0,18.0,50.0,15.0,1.0,16.0,0.0,7.0,0.0,59.0,1.0,58.0,14.0,1.0,4.0,80.0,20.0,1.0,4.0,13.0,10.0,26.0,32.0,12.0,17.0,15.0,9.0,7.0,4.0,0.0,35.0,60.0,25.0,15.0,0.0,63.0,0.0,0.0,2.0,0.0,41.0,25.0,15.0,66.0,1.0,15.0,46.0,20.0,66.0,8.0,6.0,14.0,2.0,2.0,3.0,1.0
Arunachal Pradesh,Upper Subansiri,28.277196566523585,93.8991435622318,249,83448,998.0,54.0,59.0,49.0,0.0,94.0,40.0,43.0,37.0,77.0,23.0,60.0,16.0,1.0,11.0,0.0,0.0,0.0,71.0,1.0,28.0,16.0,1.0,4.0,76.0,24.0,4.0,3.0,24.0,7.0,19.0,19.0,11.0,17.0,16.0,11.0,9.0,5.0,1.0,30.0,67.0,24.0,9.0,0.0,61.0,0.0,1.0,5.0,5.0,35.0,26.0,15.0,66.0,1.0,15.0,46.0,20.0,66.0,8.0,6.0,14.0,2.0,2.0,3.0,1.0
Arunachal Pradesh,West Kameng,27.46486582278483,92.65015750452083,246,83947,819.0,58.0,64.0,50.0,0.0,55.0,51.0,61.0,38.0,82.0,18.0,49.0,37.0,2.0,10.0,0.0,43.0,0.0,7.0,0.0,59.0,29.0,1.0,4.0,74.0,26.0,1.0,5.0,13.0,4.0,36.0,33.0,13.0,16.0,13.0,9.0,6.0,4.0,0.0,39.0,63.0,27.0,10.0,0.0,58.0,0.0,0.0,3.0,3.0,34.0,31.0,15.0,66.0,1.0,15.0,46.0,20.0,66.0,8.0,6.0,14.0,2.0,2.0,3.0,1.0
Arunachal Pradesh,West Siang,28.106296920289843,94.53510344202908,250,112274,930.0,58.0,63.0,52.0,0.0,83.0,44.0,50.0,37.0,87.0,13.0,56.0,14.0,2.0,27.0,1.0,3.0,0.0,53.0,0.0,46.0,20.0,1.0,4.0,72.0,28.0,7.0,6.0,16.0,13.0,31.0,33.0,14.0,17.0,16.0,11.0,8.0,6.0,1.0,27.0,63.0,25.0,12.0,0.0,57.0,2.0,1.0,3.0,3.0,51.0,35.0,15.0,66.0,1.0,15.0,46.0,20.0,66.0,8.0,6.0,14.0,2.0,2.0,3.0,1.0
Assam,Barpeta,26.427872264631056,90.97912010178116,303,1693622,953.0,53.0,58.0,48.0,6.0,2.0,33.0,51.0,14.0,78.0,22.0,67.0,29.0,71.0,0.0,0.0,0.0,0.0,0.0,0.0,17.0,10.0,0.0,5.0,90.0,10.0,36.0,1.0,13.0,5.0,11.0,30.0,12.0,18.0,17.0,7.0,5.0,3.0,0.0,38.0,63.0,24.0,13.0,0.0,1.0,59.0,3.0,0.0,2.0,49.0,19.0,15.0,66.0,1.0,15.0,46.0,20.0,66.0,8.0,6.0,14.0,2.0,2.0,3.0,1.0
Assam,Bongaigaon,26.45012521994133,90.6734296187684,319,738804,966.0,59.0,63.0,54.0,11.0,3.0,35.0,53.0,16.0,75.0,25.0,65.0,49.0,50.0,1.0,0.0,0.0,0.0,0.0,0.0,23.0,14.0,1.0,6.0,83.0,17.0,44.0,3.0,12.0,8.0,16.0,36.0,13.0,19.0,18.0,8.0,5.0,3.0,0.0,35.0,62.0,25.0,13.0,0.0,4.0,39.0,21.0,0.0,1.0,38.0,21.0,15.0,66.0,1.0,15.0,46.0,20.0,66.0,8.0,6.0,14.0,2.0,2.0,3.0,1.0
Assam,Cachar,24.815570668693017,92.86849650455927,316,1736617,959.0,68.0,72.0,63.0,15.0,1.0,35.0,53.0,16.0,78.0,22.0,65.0,60.0,38.0,2.0,0.0,0.0,0.0,0.0,0.0,32.0,14.0,1.0,9.0,80.0,20.0,21.0,2.0,13.0,5.0,23.0,39.0,15.0,26.0,22.0,9.0,5.0,3.0,1.0,21.0,60.0,26.0,14.0,0.0,31.0,4.0,23.0,2.0,9.0,68.0,37.0,15.0,66.0,1.0,15.0,46.0,20.0,66.0,8.0,6.0,14.0,2.0,2.0,3.0,1.0
Assam,Darrang,26.58463215962442,92.04141338028155,325,928500,954.0,52.0,57.0,48.0,4.0,1.0,35.0,52.0,17.0,74.0,26.0,65.0,35.0,64.0,0.0,0.0,0.0,0.0,0.0,0.0,16.0,6.0,0.0,4.0,93.0,7.0,38.0,1.0,18.0,5.0,11.0,25.0,13.0,17.0,17.0,6.0,5.0,2.0,0.0,39.0,63.0,24.0,13.0,0.0,2.0,56.0,3.0,0.0,1.0,33.0,16.0,15.0,66.0,1.0,15.0,46.0,20.0,66.0,8.0,6.0,14.0,2.0,2.0,3.0,1.0
Assam,Dhemaji,27.586533438485816,94.71336908517353,308,686133,953.0,62.0,68.0,55.0,6.0,47.0,46.0,53.0,39.0,64.0,36.0,54.0,95.0,2.0,1.0,0.0,0.0,0.0,1.0,0.0,12.0,7.0,1.0,5.0,93.0,7.0,37.0,2.0,18.0,5.0,11.0,25.0,11.0,19.0,19.0,11.0,8.0,4.0,0.0,27.0,63.0,25.0,12.0,0.0,1.0,45.0,4.0,0.0,3.0,25.0,17.0,15.0,66.0,1.0,15.0,46.0,20.0,66.0,8.0,6.0,14.0,2.0,2.0,3.0,1.0
Assam,Dibrugarh,27.30612284482757,95.0998282327587,310,1326335,961.0,67.0,73.0,60.0,4.0,8.0,42.0,54.0,30.0,70.0,30.0,58.0,90.0,5.0,4.0,0.0,0.0,0.0,0.0,0.0,36.0,20.0,2.0,9.0,80.0,20.0,46.0,6.0,19.0,12.0,32.0,37.0,11.0,18.0,23.0,11.0,7.0,4.0,1.0,26.0,58.0,28.0,14.0,0.0,8.0,60.0,2.0,0.0,1.0,57.0,47.0,15.0,66.0,1.0,15.0,46.0,20.0,66.0,8.0,6.0,14.0,2.0,2.0,3.0,1.0
Assam,Goalpara,26.017277777777807,90.59869891598912,302,1008183,964.0,56.0,59.0,52.0,4.0,23.0,36.0,52.0,19.0,73.0,27.0,64.0,35.0,58.0,8.0,0.0,0.0,0.0,0.0,0.0,29.0,8.0,1.0,5.0,85.0,15.0,43.0,2.0,16.0,6.0,16.0,35.0,12.0,21.0,18.0,7.0,4.0,2.0,0.0,36.0,65.0,24.0,12.0,0.0,2.0,47.0,20.0,1.0,1.0,48.0,22.0,15.0,66.0,1.0,15.0,46.0,20.0,66.0,8.0,6.0,14.0,2.0,2.0,3.0,1.0
Assam,Golaghat,26.377219709794485,93.82583397823468,313,1066888,964.0,68.0,73.0,62.0,6.0,10.0,45.0,57.0,33.0,69.0,31.0,55.0,86.0,8.0,5.0,0.0,0.0,0.0,0.0,0.0,25.0,13.0,1.0,5.0,90.0,10.0,48.0,3.0,18.0,8.0,22.0,32.0,11.0,21.0,24.0,10.0,6.0,3.0,0.0,24.0,59.0,27.0,14.0,0.0,10.0,51.0,4.0,0.0,1.0,47.0,38.0,15.0,66.0,1.0,15.0,46.0,20.0,66.0,8.0,6.0,14.0,2.0,2.0,3.0,1.0
Assam,Hailakandi,24.457496089385486,92.59154664804475,318,659296,951.0,62.0,67.0,56.0,11.0,0.0,32.0,51.0,14.0,77.0,23.0,68.0,38.0,60.0,1.0,0.0,0.0,0.0,0.0,0.0,25.0,6.0,1.0,6.0,91.0,9.0,16.0,1.0,10.0,3.0,11.0,32.0,13.0,26.0,21.0,7.0,4.0,2.0,1.0,26.0,64.0,24.0,13.0,0.0,14.0,6.0,14.0,6.0,9.0,68.0,28.0,15.0,66.0,1.0,15.0,46.0,20.0,66.0,8.0,6.0,14.0,2.0,2.0,3.0,1.0
Assam,Jorhat,26.76244824016563,94.30197722567289,312,1092256,962.0,73.0,78.0,68.0,8.0,13.0,46.0,58.0,33.0,68.0,32.0,54.0,92.0,5.0,2.0,0.0,0.0,0.0,0.0,0.0,33.0,20.0,2.0,7.0,78.0,22.0,45.0,4.0,15.0,12.0,25.0,35.0,9.0,18.0,27.0,12.0,9.0,6.0,1.0,19.0,55.0,29.0,16.0,0.0,18.0,29.0,4.0,0.0,2.0,42.0,40.0,15.0,66.0,1.0,15.0,46.0,20.0,66.0,8.0,6.0,14.0,2.0,2.0,3.0,1.0
Assam,Kamrup,26.170939452054807,91.58863273972592,321,1517542,949.0,66.0,71.0,60.0,7.0,12.0,41.0,55.0,27.0,67.0,33.0,59.0,58.0,40.0,2.0,0.0,0.0,0.0,0.0,0.0,28.0,16.0,1.0,5.0,90.0,10.0,46.0,2.0,26.0,8.0,21.0,38.0,11.0,19.0,23.0,10.0,8.0,4.0,0.0,26.0,59.0,27.0,14.0,0.0,3.0,56.0,8.0,1.0,1.0,42.0,29.0,15.0,66.0,1.0,15.0,46.0,20.0,66.0,8.0,6.0,14.0,2.0,2.0,3.0,1.0
Assam,Karbi Anglong,26.08966454598031,93.11536570271832,314,956313,951.0,58.0,64.0,52.0,5.0,56.0,40.0,50.0,29.0,68.0,32.0,60.0,80.0,2.0,16.0,0.0,1.0,0.0,0.0,0.0,21.0,7.0,1.0,4.0,85.0,15.0,38.0,2.0,20.0,5.0,22.0,31.0,11.0,22.0,20.0,9.0,4.0,2.0,0.0,31.0,65.0,24.0,11.0,0.0,5.0,22.0,26.0,6.0,4.0,38.0,21.0,15.0,66.0,1.0,15.0,46.0,20.0,66.0,8.0,6.0,14.0,2.0,2.0,3.0,1.0
Assam,Karimganj,24.69660712250711,92.3679498575498,317,1228686,963.0,65.0,70.0,60.0,13.0,0.0,32.0,51.0,13.0,74.0,26.0,68.0,42.0,56.0,1.0,0.0,0.0,0.0,0.0,0.0,24.0,10.0,1.0,8.0,89.0,11.0,13.0,1.0,8.0,2.0,13.0,36.0,16.0,27.0,21.0,6.0,3.0,2.0,1.0,25.0,63.0,23.0,13.0,0.0,11.0,13.0,19.0,2.0,8.0,71.0,34.0,15.0,66.0,1.0,15.0,46.0,20.0,66.0,8.0,6.0,14.0,2.0,2.0,3.0,1.0
Assam,Kokrajhar,26.497246635730868,90.13997470997688,300,887142,959.0,55.0,61.0,49.0,3.0,31.0,38.0,52.0,24.0,74.0,26.0,62.0,60.0,28.0,11.0,0.0,0.0,0.0,0.0,0.0,19.0,7.0,1.0,6.0,92.0,8.0,52.0,1.0,8.0,5.0,15.0,34.0,13.0,18.0,17.0,9.0,4.0,2.0,0.0,37.0,62.0,25.0,12.0,0.0,2.0,43.0,29.0,1.0,2.0,24.0,13.0,15.0,66.0,1.0,15.0,46.0,20.0,66.0,8.0,6.0,14.0,2.0,2.0,3.0,1.0
Assam,Lakhimpur,27.14128805970149,94.0775949253732,307,1042137,968.0,66.0,71.0,60.0,8.0,24.0,41.0,53.0,29.0,66.0,34.0,59.0,76.0,19.0,4.0,0.0,0.0,0.0,0.0,0.0,18.0,10.0,1.0,5.0,89.0,11.0,41.0,2.0,18.0,8.0,14.0,28.0,12.0,20.0,20.0,10.0,8.0,4.0,0.0,26.0,61.0,26.0,13.0,0.0,3.0,31.0,23.0,0.0,2.0,36.0,23.0,15.0,66.0,1.0,15.0,46.0,20.0,66.0,8.0,6.0,14.0,2.0,2.0,3.0,1.0
Assam,Nagaon,26.26462170626351,92.9306191144708,305,2823768,962.0,61.0,64.0,57.0,9.0,4.0,35.0,53.0,15.0,75.0,25.0,65.0,43.0,55.0,1.0,0.0,0.0,0.0,0.0,0.0,24.0,11.0,1.0,6.0,84.0,16.0,42.0,2.0,11.0,6.0,16.0,34.0,14.0,22.0,20.0,7.0,4.0,2.0,0.0,30.0,63.0,24.0,13.0,0.0,4.0,55.0,7.0,0.0,1.0,53.0,31.0,15.0,66.0,1.0,15.0,46.0,20.0,66.0,8.0,6.0,14.0,2.0,2.0,3.0,1.0
Assam,Nalbari,26.46323767605632,91.40598521126763,323,771639,949.0,69.0,74.0,64.0,8.0,3.0,35.0,53.0,15.0,74.0,26.0,65.0,64.0,36.0,0.0,0.0,0.0,0.0,0.0,0.0,29.0,16.0,1.0,5.0,88.0,12.0,45.0,2.0,25.0,8.0,19.0,36.0,10.0,18.0,24.0,10.0,9.0,5.0,0.0,24.0,57.0,27.0,15.0,0.0,2.0,61.0,1.0,0.0,0.0,43.0,34.0,15.0,66.0,1.0,15.0,46.0,20.0,66.0,8.0,6.0,14.0,2.0,2.0,3.0,1.0
Assam,Sonitpur,26.73514926829268,92.85197804878044,306,1924110,956.0,58.0,63.0,52.0,6.0,12.0,40.0,55.0,25.0,72.0,28.0,60.0,74.0,18.0,7.0,0.0,0.0,0.0,0.0,0.0,24.0,13.0,1.0,6.0,88.0,12.0,50.0,2.0,14.0,7.0,20.0,30.0,11.0,22.0,20.0,7.0,5.0,3.0,0.0,33.0,60.0,26.0,14.0,0.0,6.0,25.0,34.0,0.0,3.0,42.0,32.0,15.0,66.0,1.0,15.0,46.0,20.0,66.0,8.0,6.0,14.0,2.0,2.0,3.0,1.0
Assam,Tinsukia,27.53549291139241,95.69055949367085,309,1327929,952.0,60.0,67.0,53.0,3.0,6.0,42.0,54.0,29.0,74.0,26.0,58.0,89.0,4.0,6.0,0.0,1.0,0.0,0.0,0.0,42.0,18.0,1.0,7.0,76.0,24.0,44.0,3.0,13.0,8.0,29.0,33.0,11.0,20.0,21.0,8.0,5.0,3.0,1.0,31.0,60.0,27.0,13.0,0.0,7.0,58.0,3.0,0.0,1.0,57.0,44.0,15.0,66.0,1.0,15.0,46.0,20.0,66.0,8.0,6.0,14.0,2.0,2.0,3.0,1.0
Bihar,Araria,26.211528119180603,87.30766554934816,209,2811569,921.0,43.0,50.0,35.0,14.0,1.0,38.0,48.0,27.0,65.0,35.0,62.0,57.0,43.0,0.0,0.0,0.0,0.0,0.0,0.0,6.0,2.0,0.0,4.0,94.0,6.0,40.0,1.0,18.0,5.0,6.0,34.0,20.0,14.0,7.0,4.0,2.0,1.0,0.0,53.0,67.0,22.0,12.0,0.0,1.0,77.0,0.0,0.0,0.0,7.0,32.0,35.0,61.0,1.0,35.0,43.0,18.0,61.0,1.0,0.0,2.0,1.0,1.0,2.0,1.0
Bihar,Aurangabad,24.774291867469877,84.45986024096379,235,2540073,926.0,58.0,66.0,49.0,24.0,0.0,33.0,45.0,20.0,57.0,43.0,67.0,90.0,9.0,0.0,0.0,0.0,0.0,0.0,0.0,9.0,5.0,0.0,7.0,90.0,10.0,41.0,1.0,22.0,7.0,10.0,49.0,21.0,18.0,12.0,10.0,5.0,3.0,0.0,30.0,64.0,22.0,13.0,0.0,3.0,73.0,3.0,0.0,0.0,18.0,35.0,26.0,62.0,1.0,26.0,42.0,20.0,62.0,8.0,1.0,8.0,1.0,1.0,2.0,1.0
Bihar,Aurangabad,24.774291867469877,84.45986024096379,515,3701282,923.0,68.0,74.0,60.0,15.0,4.0,43.0,53.0,31.0,92.0,8.0,57.0,69.0,21.0,0.0,0.0,8.0,1.0,0.0,0.0,60.0,25.0,2.0,7.0,56.0,44.0,20.0,3.0,10.0,24.0,41.0,54.0,11.0,20.0,12.0,16.0,9.0,7.0,1.0,24.0,60.0,25.0,15.0,0.0,47.0,11.0,14.0,0.0,0.0,37.0,63.0,6.0,49.0,6.0,6.0,24.0,25.0,49.0,6.0,8.0,14.0,11.0,14.0,25.0,6.0
Bihar,Banka,24.832355642023337,86.8664916342413,225,2034763,907.0,47.0,55.0,39.0,12.0,4.0,38.0,49.0,26.0,49.0,51.0,62.0,87.0,12.0,0.0,0.0,0.0,0.0,0.0,0.0,14.0,3.0,0.0,5.0,96.0,4.0,36.0,1.0,18.0,5.0,7.0,41.0,19.0,18.0,9.0,6.0,3.0,2.0,0.0,42.0,63.0,23.0,14.0,0.0,3.0,57.0,21.0,0.0,1.0,10.0,20.0,29.0,63.0,1.0,29.0,44.0,19.0,63.0,6.0,0.0,7.0,0.0,0.0,1.0,1.0
Bihar,Begusarai,25.54302613168723,86.12560144032932,222,2970541,895.0,52.0,59.0,45.0,15.0,0.0,32.0,46.0,16.0,63.0,37.0,68.0,86.0,14.0,0.0,0.0,0.0,0.0,0.0,0.0,16.0,7.0,1.0,6.0,81.0,19.0,40.0,1.0,15.0,6.0,10.0,46.0,19.0,16.0,10.0,7.0,5.0,3.0,0.0,41.0,66.0,22.0,12.0,0.0,3.0,75.0,2.0,0.0,0.0,25.0,26.0,32.0,63.0,1.0,32.0,44.0,19.0,63.0,4.0,0.0,4.0,0.0,0.0,1.0,1.0
Bihar,Bhagalpur,25.277192885375477,87.04213814229242,224,3037766,880.0,52.0,58.0,45.0,10.0,2.0,32.0,46.0,17.0,54.0,46.0,68.0,82.0,18.0,0.0,0.0,0.0,0.0,0.0,0.0,27.0,10.0,1.0,7.0,80.0,20.0,34.0,1.0,20.0,7.0,18.0,47.0,20.0,17.0,10.0,8.0,5.0,4.0,1.0,37.0,64.0,22.0,13.0,0.0,7.0,67.0,9.0,0.0,0.0,29.0,32.0,24.0,61.0,2.0,24.0,40.0,21.0,61.0,8.0,1.0,9.0,1.0,2.0,4.0,2.0
Bihar,Bhojpur,25.50666439393939,84.49407803030304,231,2728407,907.0,59.0,68.0,48.0,16.0,1.0,30.0,45.0,14.0,62.0,38.0,70.0,92.0,7.0,0.0,0.0,0.0,0.0,0.0,0.0,12.0,9.0,1.0,7.0,85.0,15.0,40.0,1.0,23.0,9.0,17.0,52.0,18.0,19.0,12.0,10.0,5.0,4.0,0.0,32.0,63.0,22.0,14.0,0.0,3.0,76.0,1.0,0.0,0.0,22.0,42.0,23.0,62.0,2.0,23.0,41.0,21.0,62.0,9.0,1.0,10.0,1.0,2.0,3.0,2.0
Bihar,Buxar,25.48593018867924,84.08808081760995,232,1706352,922.0,58.0,67.0,48.0,15.0,2.0,32.0,45.0,17.0,61.0,39.0,68.0,93.0,6.0,0.0,0.0,0.0,0.0,0.0,0.0,14.0,8.0,1.0,6.0,89.0,11.0,41.0,2.0,23.0,8.0,14.0,52.0,18.0,23.0,14.0,10.0,5.0,4.0,0.0,25.0,63.0,22.0,15.0,0.0,3.0,72.0,1.0,0.0,0.0,19.0,39.0,25.0,62.0,2.0,25.0,42.0,20.0,62.0,9.0,1.0,9.0,1.0,1.0,2.0,2.0
Bihar,Darbhanga,26.146187719298258,85.97387352472099,215,3937385,911.0,46.0,55.0,37.0,16.0,0.0,31.0,46.0,15.0,60.0,40.0,69.0,77.0,22.0,0.0,0.0,0.0,0.0,0.0,0.0,13.0,6.0,1.0,5.0,90.0,10.0,32.0,1.0,20.0,5.0,8.0,44.0,16.0,12.0,8.0,5.0,4.0,3.0,1.0,52.0,64.0,22.0,13.0,0.0,2.0,77.0,0.0,0.0,0.0,20.0,25.0,28.0,62.0,1.0,28.0,42.0,20.0,62.0,6.0,0.0,6.0,1.0,1.0,2.0,1.0
Bihar,Gaya,24.7266541547278,84.94291217765044,236,4391418,937.0,52.0,60.0,44.0,30.0,0.0,38.0,47.0,28.0,61.0,39.0,62.0,88.0,11.0,0.0,0.0,0.0,0.0,0.0,0.0,14.0,7.0,1.0,7.0,86.0,14.0,36.0,1.0,20.0,7.0,13.0,48.0,19.0,16.0,9.0,7.0,4.0,3.0,0.0,41.0,64.0,21.0,12.0,2.0,5.0,71.0,7.0,0.0,0.0,21.0,32.0,24.0,62.0,2.0,24.0,41.0,20.0,62.0,8.0,1.0,9.0,1.0,2.0,3.0,2.0
Bihar,Gopalganj,26.44874364161851,84.34636127167629,217,2562012,1021.0,54.0,63.0,46.0,12.0,2.0,28.0,43.0,15.0,50.0,50.0,72.0,83.0,17.0,0.0,0.0,0.0,0.0,0.0,0.0,13.0,6.0,1.0,6.0,93.0,7.0,56.0,2.0,28.0,9.0,11.0,57.0,20.0,17.0,11.0,8.0,5.0,3.0,0.0,36.0,64.0,21.0,14.0,0.0,3.0,72.0,0.0,0.0,0.0,15.0,38.0,25.0,62.0,1.0,25.0,43.0,19.0,62.0,10.0,0.0,10.0,1.0,1.0,1.0,1.0
Bihar,Jamui,24.78418380462726,86.26316298200514,238,1760405,922.0,49.0,58.0,38.0,17.0,4.0,41.0,49.0,33.0,61.0,39.0,59.0,87.0,12.0,0.0,0.0,0.0,0.0,0.0,0.0,9.0,4.0,1.0,6.0,91.0,9.0,32.0,1.0,14.0,5.0,8.0,45.0,23.0,17.0,8.0,6.0,3.0,2.0,0.0,41.0,65.0,22.0,13.0,0.0,4.0,46.0,33.0,0.0,1.0,13.0,18.0,26.0,62.0,1.0,26.0,43.0,19.0,62.0,9.0,0.0,9.0,1.0,1.0,2.0,1.0
Bihar,Jehanabad,25.155679045643165,84.9208124481328,239,1125313,922.0,55.0,64.0,45.0,20.0,0.0,32.0,45.0,18.0,69.0,31.0,68.0,93.0,7.0,0.0,0.0,0.0,0.0,0.0,0.0,13.0,7.0,1.0,5.0,87.0,13.0,32.0,1.0,23.0,6.0,15.0,47.0,17.0,14.0,10.0,9.0,6.0,4.0,0.0,41.0,63.0,23.0,14.0,0.0,3.0,77.0,2.0,0.0,0.0,23.0,35.0,26.0,62.0,1.0,26.0,42.0,20.0,62.0,8.0,1.0,9.0,1.0,1.0,2.0,1.0
Bihar,Katihar,25.56565356037151,87.70466083591326,212,3071029,919.0,42.0,48.0,35.0,9.0,6.0,33.0,48.0,17.0,66.0,34.0,67.0,55.0,44.0,0.0,0.0,0.0,0.0,0.0,0.0,8.0,4.0,0.0,4.0,91.0,9.0,39.0,1.0,18.0,5.0,8.0,32.0,15.0,14.0,8.0,4.0,3.0,2.0,0.0,54.0,67.0,22.0,12.0,0.0,2.0,79.0,1.0,0.0,0.0,15.0,27.0,29.0,62.0,1.0,29.0,42.0,20.0,62.0,5.0,1.0,5.0,1.0,1.0,2.0,1.0
Bihar,Khagaria,25.53558891454964,86.56593256351037,223,1666886,886.0,46.0,52.0,39.0,15.0,0.0,34.0,45.0,21.0,55.0,45.0,66.0,89.0,11.0,0.0,0.0,0.0,0.0,0.0,0.0,10.0,4.0,0.0,5.0,95.0,5.0,25.0,1.0,14.0,4.0,8.0,41.0,19.0,13.0,7.0,5.0,4.0,2.0,0.0,49.0,67.0,21.0,12.0,0.0,2.0,79.0,0.0,0.0,0.0,20.0,22.0,32.0,62.0,1.0,32.0,43.0,20.0,62.0,2.0,0.0,3.0,1.0,1.0,1.0,1.0
Bihar,Kishanganj,26.324336758321294,87.95045007235886,210,1690400,950.0,44.0,51.0,37.0,7.0,4.0,31.0,49.0,13.0,73.0,27.0,69.0,31.0,68.0,0.0,0.0,0.0,0.0,0.0,0.0,13.0,3.0,0.0,3.0,90.0,10.0,40.0,1.0,12.0,4.0,6.0,29.0,21.0,14.0,5.0,2.0,2.0,1.0,0.0,55.0,67.0,21.0,11.0,0.0,1.0,71.0,2.0,0.0,0.0,8.0,24.0,30.0,62.0,1.0,30.0,43.0,19.0,62.0,4.0,1.0,5.0,1.0,1.0,2.0,1.0
Bihar,Lakhisarai,25.183449321266963,86.12825701357468,227,1000912,902.0,51.0,58.0,43.0,15.0,1.0,33.0,46.0,18.0,62.0,38.0,67.0,96.0,4.0,0.0,0.0,0.0,0.0,0.0,0.0,21.0,6.0,1.0,4.0,85.0,15.0,24.0,1.0,14.0,5.0,15.0,46.0,16.0,14.0,11.0,8.0,5.0,3.0,0.0,43.0,65.0,22.0,13.0,0.0,5.0,61.0,10.0,0.0,0.0,25.0,29.0,25.0,62.0,2.0,25.0,42.0,20.0,62.0,8.0,1.0,9.0,1.0,2.0,3.0,2.0
Bihar,Madhepura,25.77341929460581,86.8978443983403,213,2001762,911.0,42.0,49.0,33.0,17.0,1.0,39.0,47.0,30.0,57.0,43.0,61.0,88.0,12.0,0.0,0.0,0.0,0.0,0.0,0.0,5.0,2.0,0.0,5.0,95.0,5.0,33.0,1.0,15.0,4.0,5.0,36.0,16.0,9.0,6.0,5.0,4.0,2.0,0.0,58.0,66.0,22.0,12.0,0.0,1.0,75.0,0.0,0.0,0.0,10.0,27.0,33.0,63.0,1.0,33.0,44.0,19.0,63.0,3.0,0.0,3.0,0.0,0.0,1.0,1.0
Bihar,Madhubani,26.41380538172716,86.16328360450552,207,4487379,926.0,48.0,58.0,38.0,13.0,0.0,36.0,47.0,25.0,66.0,34.0,64.0,81.0,18.0,0.0,0.0,0.0,0.0,0.0,0.0,10.0,4.0,0.0,6.0,96.0,4.0,38.0,1.0,28.0,5.0,7.0,45.0,17.0,16.0,11.0,6.0,4.0,3.0,0.0,43.0,64.0,22.0,14.0,0.0,2.0,79.0,0.0,0.0,0.0,15.0,22.0,31.0,63.0,1.0,31.0,44.0,19.0,63.0,5.0,0.0,5.0,0.0,0.0,1.0,1.0
Bihar,Munger,25.198537962962963,86.54173672839504,226,1367765,876.0,59.0,65.0,51.0,13.0,2.0,31.0,45.0,16.0,55.0,45.0,69.0,92.0,8.0,0.0,0.0,0.0,0.0,0.0,0.0,29.0,16.0,1.0,6.0,72.0,28.0,37.0,1.0,18.0,8.0,23.0,49.0,17.0,12.0,11.0,11.0,8.0,5.0,0.0,37.0,63.0,23.0,14.0,0.0,7.0,60.0,16.0,0.0,0.0,33.0,36.0,20.0,60.0,3.0,20.0,39.0,22.0,60.0,10.0,1.0,11.0,2.0,3.0,5.0,3.0
Bihar,Muzaffarpur,26.18664417177915,85.32745092024543,216,4801062,900.0,52.0,59.0,45.0,16.0,0.0,32.0,47.0,15.0,59.0,41.0,68.0,84.0,16.0,0.0,0.0,0.0,0.0,0.0,0.0,16.0,8.0,1.0,7.0,89.0,11.0,49.0,2.0,23.0,8.0,15.0,49.0,23.0,15.0,9.0,6.0,4.0,3.0,0.0,40.0,63.0,22.0,15.0,0.0,4.0,78.0,1.0,0.0,0.0,23.0,31.0,26.0,62.0,2.0,26.0,42.0,20.0,62.0,8.0,1.0,8.0,1.0,1.0,2.0,2.0
Bihar,Nalanda,25.229345508982053,85.48053113772461,229,2877653,922.0,53.0,61.0,43.0,21.0,0.0,36.0,47.0,25.0,71.0,29.0,64.0,93.0,7.0,0.0,0.0,0.0,0.0,0.0,0.0,16.0,7.0,1.0,7.0,83.0,17.0,20.0,1.0,13.0,5.0,14.0,44.0,18.0,15.0,10.0,8.0,5.0,4.0,0.0,40.0,64.0,22.0,14.0,0.0,6.0,63.0,6.0,0.0,0.0,24.0,29.0,24.0,62.0,2.0,24.0,41.0,20.0,62.0,8.0,1.0,9.0,1.0,2.0,3.0,2.0
Bihar,Nawada,24.825708836206903,85.61594568965519,237,2219146,939.0,49.0,58.0,40.0,25.0,0.0,37.0,47.0,26.0,62.0,38.0,63.0,89.0,11.0,0.0,0.0,0.0,0.0,0.0,0.0,7.0,5.0,0.0,7.0,89.0,11.0,18.0,1.0,14.0,4.0,8.0,43.0,23.0,14.0,8.0,6.0,4.0,3.0,0.0,42.0,65.0,22.0,13.0,0.0,2.0,71.0,6.0,0.0,0.0,18.0,31.0,29.0,62.0,1.0,29.0,43.0,19.0,62.0,5.0,1.0,6.0,1.0,1.0,2.0,1.0
Bihar,Pashchim Champaran,27.16064352201258,84.30265911949685,203,3935042,909.0,45.0,53.0,36.0,14.0,6.0,38.0,48.0,26.0,54.0,46.0,62.0,77.0,22.0,0.0,0.0,0.0,0.0,0.0,0.0,6.0,4.0,0.0,4.0,90.0,10.0,45.0,1.0,20.0,5.0,7.0,40.0,27.0,14.0,6.0,4.0,3.0,2.0,0.0,44.0,65.0,23.0,13.0,0.0,2.0,72.0,1.0,0.0,0.0,12.0,29.0,29.0,62.0,1.0,29.0,42.0,20.0,62.0,4.0,1.0,5.0,1.0,2.0,2.0,1.0
Bihar,Patna,25.40297114503818,85.3198433587787,230,5838465,897.0,59.0,66.0,52.0,16.0,0.0,32.0,47.0,16.0,73.0,27.0,68.0,92.0,8.0,0.0,0.0,0.0,0.0,0.0,0.0,45.0,27.0,3.0,11.0,54.0,46.0,36.0,4.0,19.0,15.0,37.0,55.0,17.0,15.0,12.0,9.0,6.0,6.0,1.0,34.0,62.0,24.0,14.0,0.0,19.0,55.0,3.0,0.0,0.0,42.0,47.0,15.0,59.0,7.0,15.0,33.0,27.0,59.0,10.0,2.0,12.0,3.0,4.0,7.0,7.0
Bihar,Purba Champaran,26.68129336734693,85.00382155612242,204,5099371,902.0,45.0,52.0,36.0,13.0,0.0,34.0,47.0,20.0,65.0,35.0,66.0,80.0,19.0,0.0,0.0,0.0,0.0,0.0,0.0,6.0,4.0,1.0,6.0,92.0,8.0,49.0,2.0,29.0,6.0,8.0,47.0,24.0,19.0,9.0,5.0,2.0,1.0,0.0,40.0,65.0,22.0,13.0,0.0,2.0,76.0,1.0,0.0,0.0,14.0,31.0,29.0,62.0,1.0,29.0,43.0,19.0,62.0,5.0,0.0,6.0,1.0,1.0,2.0,1.0
Bihar,Purnia,25.81714801901739,87.40447606973065,211,3264619,921.0,41.0,47.0,34.0,12.0,4.0,35.0,47.0,22.0,68.0,32.0,65.0,61.0,38.0,0.0,0.0,0.0,0.0,0.0,0.0,11.0,4.0,1.0,4.0,89.0,11.0,37.0,1.0,16.0,5.0,8.0,32.0,20.0,11.0,6.0,4.0,3.0,2.0,0.0,55.0,66.0,21.0,11.0,1.0,2.0,76.0,0.0,0.0,0.0,11.0,29.0,31.0,62.0,1.0,31.0,42.0,20.0,62.0,3.0,1.0,3.0,1.0,1.0,2.0,1.0
Bihar,Rohtas,24.99170460829495,83.9350762672811,234,2959918,918.0,61.0,69.0,52.0,19.0,1.0,31.0,46.0,15.0,59.0,41.0,69.0,89.0,10.0,0.0,0.0,0.0,0.0,0.0,0.0,19.0,7.0,1.0,6.0,84.0,16.0,37.0,2.0,20.0,8.0,17.0,51.0,17.0,18.0,13.0,11.0,6.0,5.0,1.0,29.0,63.0,23.0,14.0,0.0,4.0,68.0,1.0,0.0,0.0,21.0,41.0,19.0,61.0,3.0,19.0,38.0,23.0,61.0,11.0,1.0,12.0,2.0,3.0,5.0,3.0
Bihar,Saharsa,25.821270696721303,86.54670819672135,214,1900661,906.0,42.0,51.0,33.0,17.0,0.0,34.0,46.0,21.0,56.0,44.0,66.0,86.0,14.0,0.0,0.0,0.0,0.0,0.0,0.0,9.0,5.0,0.0,4.0,92.0,8.0,28.0,1.0,13.0,4.0,6.0,35.0,17.0,10.0,5.0,4.0,3.0,2.0,0.0,57.0,66.0,22.0,12.0,0.0,1.0,74.0,1.0,0.0,0.0,13.0,24.0,29.0,62.0,1.0,29.0,42.0,20.0,62.0,5.0,1.0,5.0,1.0,1.0,2.0,1.0
Bihar,Samastipur,25.793205563909765,85.94833323308269,221,4261566,911.0,50.0,58.0,42.0,19.0,0.0,32.0,47.0,15.0,68.0,32.0,68.0,89.0,11.0,0.0,0.0,0.0,0.0,0.0,0.0,8.0,4.0,1.0,5.0,96.0,4.0,43.0,1.0,17.0,5.0,8.0,42.0,17.0,16.0,10.0,6.0,4.0,3.0,0.0,44.0,65.0,21.0,13.0,0.0,2.0,75.0,2.0,0.0,0.0,15.0,20.0,29.0,63.0,1.0,29.0,44.0,19.0,63.0,7.0,0.0,7.0,0.0,0.0,1.0,1.0
Bihar,Saran,25.89656077844312,84.82266287425155,219,3951862,954.0,55.0,64.0,45.0,12.0,1.0,26.0,42.0,9.0,52.0,48.0,74.0,89.0,10.0,0.0,0.0,0.0,0.0,0.0,0.0,12.0,7.0,1.0,5.0,90.0,10.0,56.0,1.0,31.0,9.0,16.0,55.0,20.0,17.0,11.0,9.0,5.0,4.0,0.0,33.0,64.0,21.0,15.0,0.0,4.0,74.0,3.0,0.0,0.0,18.0,36.0,24.0,62.0,1.0,24.0,42.0,20.0,62.0,10.0,1.0,10.0,1.0,1.0,2.0,1.0
Bihar,Sheikhpura,25.12472436548223,85.77839390862943,228,636342,930.0,52.0,60.0,43.0,21.0,0.0,35.0,46.0,24.0,66.0,34.0,65.0,94.0,6.0,0.0,0.0,0.0,0.0,0.0,0.0,15.0,5.0,0.0,7.0,82.0,18.0,25.0,1.0,15.0,5.0,12.0,46.0,18.0,15.0,8.0,7.0,5.0,3.0,0.0,43.0,65.0,22.0,13.0,0.0,4.0,64.0,7.0,0.0,0.0,23.0,26.0,27.0,61.0,2.0,27.0,41.0,21.0,61.0,5.0,1.0,6.0,1.0,2.0,3.0,2.0
Bihar,Sheohar,26.458380748663107,85.29539411764709,205,656246,893.0,43.0,50.0,36.0,15.0,0.0,33.0,48.0,16.0,64.0,36.0,67.0,84.0,15.0,0.0,0.0,0.0,0.0,0.0,1.0,6.0,2.0,0.0,4.0,95.0,5.0,44.0,1.0,34.0,5.0,7.0,50.0,20.0,14.0,6.0,4.0,2.0,2.0,0.0,53.0,64.0,21.0,14.0,0.0,1.0,87.0,0.0,0.0,0.0,18.0,31.0,35.0,62.0,1.0,35.0,43.0,18.0,62.0,1.0,0.0,1.0,0.0,1.0,1.0,1.0
Bihar,Sitamarhi,26.56570069686413,85.61172491289203,206,3423574,899.0,42.0,49.0,34.0,12.0,0.0,33.0,48.0,15.0,68.0,32.0,67.0,78.0,22.0,0.0,0.0,0.0,0.0,0.0,0.0,8.0,5.0,0.0,5.0,94.0,6.0,37.0,1.0,29.0,5.0,7.0,40.0,21.0,11.0,6.0,4.0,3.0,2.0,0.0,53.0,64.0,22.0,13.0,1.0,1.0,83.0,0.0,0.0,0.0,18.0,25.0,32.0,62.0,1.0,32.0,43.0,19.0,62.0,3.0,0.0,3.0,1.0,1.0,1.0,1.0
Bihar,Siwan,26.1736372013652,84.33766552901022,218,3330464,988.0,58.0,67.0,49.0,12.0,3.0,28.0,44.0,12.0,50.0,50.0,72.0,81.0,18.0,0.0,0.0,0.0,0.0,0.0,0.0,8.0,6.0,1.0,6.0,94.0,6.0,57.0,2.0,27.0,9.0,11.0,60.0,19.0,17.0,12.0,10.0,5.0,3.0,0.0,33.0,64.0,21.0,15.0,0.0,3.0,77.0,0.0,0.0,0.0,18.0,41.0,24.0,63.0,1.0,24.0,43.0,20.0,63.0,11.0,0.0,11.0,0.0,1.0,1.0,1.0
Bihar,Supaul,26.28157893772896,86.78496465201461,208,2229076,929.0,46.0,56.0,36.0,16.0,0.0,39.0,48.0,30.0,54.0,46.0,61.0,81.0,18.0,0.0,0.0,0.0,0.0,0.0,0.0,9.0,2.0,0.0,4.0,95.0,5.0,32.0,1.0,18.0,4.0,4.0,35.0,20.0,12.0,7.0,4.0,3.0,2.0,0.0,52.0,65.0,22.0,12.0,0.0,1.0,71.0,0.0,0.0,0.0,8.0,25.0,29.0,62.0,1.0,29.0,43.0,19.0,62.0,6.0,0.0,6.0,0.0,1.0,1.0,1.0
Bihar,Vaishali,25.8134703180212,85.39247597173153,220,3495021,895.0,55.0,62.0,47.0,21.0,0.0,30.0,47.0,12.0,68.0,32.0,70.0,90.0,10.0,0.0,0.0,0.0,0.0,0.0,0.0,9.0,6.0,1.0,5.0,93.0,7.0,53.0,2.0,27.0,8.0,13.0,52.0,22.0,13.0,10.0,8.0,5.0,3.0,0.0,39.0,62.0,22.0,14.0,2.0,2.0,76.0,4.0,0.0,0.0,23.0,28.0,26.0,62.0,1.0,26.0,43.0,20.0,62.0,8.0,0.0,9.0,1.0,1.0,2.0,1.0
Chandigarh,Chandigarh,30.7426,76.75872465753424,55,1055450,818.0,76.0,80.0,72.0,19.0,0.0,38.0,57.0,16.0,95.0,5.0,62.0,81.0,5.0,1.0,13.0,0.0,0.0,0.0,0.0,77.0,56.0,15.0,26.0,3.0,97.0,45.0,20.0,22.0,37.0,65.0,70.0,9.0,13.0,12.0,14.0,11.0,19.0,2.0,20.0,57.0,29.0,14.0,0.0,76.0,2.0,0.0,0.0,0.0,69.0,71.0,3.0,32.0,23.0,3.0,11.0,21.0,32.0,13.0,7.0,20.0,10.0,13.0,23.0,23.0
Chhattisgarh,Bastar,19.393866751269048,81.52895126903546,414,1413199,1023.0,46.0,55.0,38.0,3.0,66.0,51.0,58.0,45.0,54.0,46.0,49.0,90.0,1.0,2.0,0.0,0.0,0.0,6.0,0.0,42.0,6.0,0.0,2.0,85.0,15.0,52.0,1.0,10.0,9.0,14.0,16.0,13.0,13.0,10.0,4.0,4.0,2.0,0.0,53.0,61.0,25.0,13.0,0.0,13.0,58.0,5.0,3.0,1.0,17.0,13.0,23.0,67.0,2.0,23.0,41.0,27.0,67.0,3.0,1.0,5.0,1.0,2.0,3.0,2.0
Chhattisgarh,Bilaspur,22.356942982456143,81.99770350877188,30,381956,981.0,75.0,81.0,70.0,26.0,3.0,54.0,58.0,50.0,50.0,50.0,46.0,97.0,2.0,0.0,1.0,0.0,0.0,0.0,0.0,48.0,10.0,1.0,4.0,93.0,7.0,3.0,4.0,9.0,7.0,37.0,41.0,10.0,17.0,15.0,18.0,13.0,7.0,1.0,19.0,51.0,28.0,21.0,0.0,41.0,3.0,1.0,0.0,0.0,35.0,37.0,14.0,51.0,2.0,14.0,33.0,18.0,51.0,7.0,6.0,13.0,9.0,10.0,19.0,2.0
Chhattisgarh,Bilaspur,22.356942982456143,81.99770350877188,406,2663629,971.0,60.0,69.0,51.0,21.0,19.0,45.0,53.0,37.0,69.0,31.0,55.0,95.0,2.0,1.0,0.0,0.0,0.0,1.0,0.0,70.0,11.0,1.0,4.0,74.0,26.0,47.0,2.0,13.0,12.0,26.0,24.0,15.0,16.0,13.0,7.0,6.0,5.0,1.0,37.0,61.0,25.0,14.0,0.0,21.0,52.0,9.0,0.0,0.0,23.0,18.0,16.0,61.0,7.0,16.0,32.0,29.0,61.0,8.0,3.0,11.0,3.0,3.0,6.0,7.0
Chhattisgarh,Dhamtari,20.554912627291245,81.7569195519348,412,799781,1010.0,68.0,76.0,60.0,7.0,26.0,50.0,57.0,44.0,83.0,17.0,50.0,97.0,1.0,0.0,0.0,0.0,0.0,0.0,0.0,71.0,7.0,0.0,2.0,80.0,20.0,57.0,1.0,7.0,15.0,32.0,26.0,18.0,19.0,15.0,8.0,7.0,4.0,1.0,27.0,58.0,27.0,16.0,0.0,25.0,47.0,7.0,0.0,0.0,24.0,14.0,25.0,63.0,3.0,25.0,41.0,22.0,63.0,2.0,2.0,4.0,2.0,3.0,4.0,3.0
Chhattisgarh,Durg,21.194463849287164,81.33181639511197,409,3343872,988.0,69.0,76.0,61.0,14.0,12.0,45.0,55.0,35.0,81.0,19.0,55.0,94.0,2.0,1.0,1.0,1.0,1.0,1.0,0.0,70.0,15.0,2.0,6.0,60.0,40.0,55.0,3.0,10.0,20.0,39.0,36.0,15.0,18.0,16.0,10.0,9.0,6.0,1.0,26.0,57.0,27.0,16.0,0.0,28.0,47.0,3.0,0.0,0.0,26.0,27.0,15.0,60.0,6.0,15.0,33.0,28.0,60.0,6.0,4.0,10.0,3.0,5.0,8.0,6.0
Chhattisgarh,Jashpur,22.77286167664669,83.8703962075848,402,851669,1005.0,58.0,66.0,50.0,6.0,62.0,57.0,62.0,52.0,60.0,40.0,43.0,74.0,2.0,22.0,0.0,0.0,0.0,2.0,0.0,34.0,3.0,0.0,3.0,91.0,9.0,44.0,1.0,5.0,7.0,9.0,16.0,14.0,16.0,15.0,7.0,6.0,3.0,0.0,38.0,57.0,25.0,17.0,0.0,4.0,57.0,20.0,2.0,1.0,12.0,6.0,23.0,69.0,1.0,23.0,40.0,29.0,69.0,5.0,1.0,6.0,0.0,1.0,1.0,1.0
Chhattisgarh,Korba,22.491712499999995,82.57604326923074,404,1206640,969.0,62.0,71.0,53.0,10.0,41.0,43.0,54.0,32.0,67.0,33.0,57.0,94.0,3.0,2.0,0.0,0.0,0.0,1.0,0.0,61.0,13.0,1.0,5.0,62.0,38.0,49.0,3.0,7.0,17.0,29.0,27.0,15.0,16.0,14.0,7.0,7.0,5.0,1.0,34.0,60.0,26.0,14.0,0.0,18.0,43.0,18.0,1.0,1.0,23.0,20.0,16.0,60.0,5.0,16.0,33.0,27.0,60.0,6.0,4.0,10.0,3.0,6.0,9.0,5.0
Chhattisgarh,Koriya,23.50412776859501,82.12515636363635,400,658917,968.0,60.0,69.0,52.0,8.0,46.0,47.0,55.0,38.0,56.0,44.0,53.0,92.0,4.0,1.0,0.0,0.0,0.0,2.0,0.0,44.0,14.0,1.0,4.0,67.0,33.0,37.0,2.0,11.0,15.0,21.0,28.0,22.0,17.0,14.0,7.0,6.0,4.0,1.0,28.0,61.0,25.0,14.0,0.0,20.0,35.0,21.0,2.0,2.0,20.0,21.0,17.0,62.0,4.0,17.0,34.0,28.0,62.0,6.0,3.0,10.0,3.0,4.0,7.0,4.0
Chhattisgarh,Mahasamund,21.223727037773354,82.65925427435384,411,1032754,1017.0,62.0,71.0,53.0,14.0,27.0,48.0,57.0,40.0,68.0,32.0,52.0,98.0,1.0,1.0,0.0,0.0,0.0,0.0,0.0,68.0,4.0,0.0,2.0,88.0,12.0,56.0,1.0,4.0,10.0,22.0,21.0,17.0,18.0,14.0,7.0,5.0,3.0,1.0,35.0,56.0,26.0,17.0,0.0,11.0,66.0,5.0,0.0,0.0,16.0,9.0,24.0,67.0,2.0,24.0,42.0,25.0,67.0,1.0,2.0,3.0,1.0,2.0,4.0,2.0
Chhattisgarh,Raigarh,22.008265068493166,83.27797698630134,403,1493984,991.0,64.0,72.0,55.0,15.0,34.0,46.0,57.0,35.0,70.0,30.0,54.0,95.0,1.0,3.0,0.0,0.0,0.0,0.0,0.0,71.0,7.0,1.0,3.0,84.0,16.0,54.0,1.0,7.0,12.0,23.0,23.0,17.0,18.0,14.0,9.0,6.0,4.0,1.0,31.0,56.0,27.0,17.0,0.0,17.0,60.0,7.0,0.0,1.0,17.0,12.0,21.0,66.0,3.0,21.0,38.0,28.0,66.0,5.0,2.0,7.0,1.0,2.0,3.0,3.0
Chhattisgarh,Raigarh,22.008265068493166,83.27797698630134,520,2634200,959.0,74.0,79.0,68.0,5.0,12.0,41.0,56.0,25.0,80.0,20.0,59.0,85.0,9.0,1.0,0.0,5.0,0.0,0.0,0.0,57.0,34.0,4.0,10.0,61.0,39.0,14.0,5.0,9.0,16.0,39.0,47.0,10.0,17.0,14.0,19.0,9.0,9.0,1.0,21.0,54.0,28.0,18.0,0.0,46.0,7.0,6.0,0.0,0.0,39.0,57.0,5.0,52.0,10.0,5.0,21.0,31.0,52.0,8.0,6.0,14.0,8.0,11.0,20.0,10.0
Chhattisgarh,Raipur,20.88603153846152,82.20032759615388,410,4063872,984.0,65.0,73.0,56.0,18.0,12.0,43.0,54.0,33.0,72.0,28.0,57.0,96.0,3.0,1.0,0.0,0.0,0.0,0.0,0.0,68.0,16.0,2.0,6.0,63.0,37.0,51.0,3.0,11.0,17.0,35.0,32.0,16.0,17.0,14.0,8.0,7.0,6.0,1.0,32.0,60.0,26.0,14.0,0.0,21.0,53.0,5.0,0.0,0.0,25.0,24.0,16.0,61.0,7.0,16.0,32.0,29.0,61.0,6.0,4.0,9.0,3.0,4.0,7.0,7.0
Chhattisgarh,Surguja,23.32719278728607,83.23582493887531,401,2359886,978.0,50.0,58.0,42.0,5.0,55.0,49.0,54.0,43.0,54.0,46.0,51.0,90.0,3.0,4.0,0.0,0.0,0.0,2.0,0.0,43.0,5.0,0.0,3.0,89.0,11.0,47.0,1.0,11.0,10.0,13.0,20.0,16.0,15.0,12.0,6.0,5.0,3.0,0.0,43.0,61.0,24.0,15.0,0.0,6.0,50.0,25.0,1.0,2.0,22.0,10.0,22.0,68.0,1.0,22.0,38.0,29.0,68.0,6.0,1.0,7.0,1.0,1.0,2.0,1.0
Daman and Diu,Daman,20.431616666666677,72.8392366071429,495,191173,534.0,79.0,84.0,69.0,2.0,8.0,55.0,76.0,17.0,96.0,4.0,45.0,90.0,8.0,1.0,0.0,0.0,0.0,0.0,0.0,69.0,36.0,2.0,6.0,14.0,86.0,21.0,4.0,15.0,20.0,40.0,61.0,6.0,20.0,22.0,19.0,10.0,7.0,1.0,15.0,64.0,28.0,8.0,0.0,49.0,20.0,0.0,0.0,0.0,58.0,57.0,3.0,32.0,23.0,3.0,11.0,21.0,32.0,13.0,7.0,20.0,10.0,13.0,23.0,23.0
Daman and Diu,Junagadh,20.72568199498111,70.83985639899612,479,2743082,953.0,67.0,75.0,59.0,10.0,2.0,41.0,57.0,24.0,84.0,16.0,59.0,87.0,12.0,0.0,0.0,0.0,0.0,0.0,0.0,64.0,19.0,1.0,3.0,63.0,37.0,24.0,2.0,8.0,25.0,41.0,52.0,11.0,27.0,12.0,12.0,5.0,5.0,1.0,26.0,56.0,27.0,17.0,0.0,43.0,13.0,5.0,0.0,0.0,40.0,44.0,8.0,54.0,7.0,8.0,26.0,27.0,54.0,7.0,8.0,15.0,7.0,11.0,17.0,7.0
Goa,North Goa,15.548723418714054,73.80667997909038,585,818008,963.0,81.0,84.0,78.0,2.0,7.0,40.0,57.0,22.0,82.0,18.0,60.0,76.0,7.0,16.0,0.0,0.0,0.0,0.0,0.0,54.0,41.0,7.0,17.0,36.0,64.0,13.0,14.0,18.0,31.0,45.0,49.0,6.0,14.0,20.0,21.0,12.0,12.0,2.0,14.0,47.0,32.0,21.0,0.0,46.0,0.0,5.0,1.0,0.0,43.0,49.0,6.0,43.0,17.0,6.0,20.0,23.0,43.0,7.0,9.0,16.0,8.0,10.0,18.0,17.0
Goa,South Goa,15.195278658183785,73.941792596877,586,640537,986.0,78.0,82.0,75.0,1.0,14.0,39.0,56.0,22.0,83.0,17.0,61.0,53.0,10.0,36.0,0.0,0.0,0.0,0.0,0.0,55.0,41.0,7.0,18.0,35.0,65.0,15.0,14.0,17.0,33.0,46.0,51.0,5.0,13.0,22.0,20.0,12.0,10.0,2.0,16.0,49.0,30.0,20.0,0.0,50.0,0.0,3.0,1.0,0.0,46.0,51.0,5.0,42.0,18.0,5.0,19.0,23.0,42.0,7.0,9.0,16.0,9.0,10.0,19.0,18.0
Gujarat,Ahmadabad,22.605425564971743,72.23898135593227,474,7214225,904.0,75.0,80.0,70.0,11.0,1.0,36.0,56.0,14.0,90.0,10.0,64.0,84.0,12.0,1.0,0.0,0.0,3.0,0.0,0.0,66.0,44.0,6.0,12.0,16.0,84.0,31.0,8.0,23.0,32.0,53.0,54.0,11.0,23.0,12.0,16.0,8.0,12.0,1.0,16.0,55.0,28.0,17.0,0.0,58.0,8.0,1.0,0.0,0.0,56.0,59.0,3.0,42.0,16.0,3.0,13.0,28.0,42.0,9.0,13.0,22.0,7.0,11.0,17.0,16.0
Gujarat,Amreli,21.04832649310872,71.43457637825426,480,1514190,964.0,66.0,72.0,59.0,9.0,0.0,43.0,59.0,27.0,81.0,19.0,57.0,93.0,7.0,0.0,0.0,0.0,0.0,0.0,0.0,63.0,19.0,1.0,3.0,73.0,27.0,22.0,2.0,7.0,26.0,38.0,52.0,16.0,29.0,8.0,11.0,5.0,4.0,1.0,27.0,55.0,26.0,19.0,0.0,47.0,15.0,3.0,0.0,0.0,40.0,47.0,8.0,55.0,6.0,8.0,28.0,27.0,55.0,7.0,7.0,14.0,6.0,10.0,17.0,6.0
Gujarat,Anand,22.282718206229863,72.57782051557454,482,2092745,925.0,74.0,80.0,67.0,5.0,1.0,40.0,58.0,22.0,82.0,18.0,60.0,86.0,12.0,1.0,0.0,0.0,0.0,0.0,0.0,61.0,24.0,2.0,5.0,66.0,34.0,28.0,3.0,10.0,17.0,33.0,39.0,13.0,29.0,12.0,15.0,7.0,6.0,1.0,18.0,54.0,28.0,18.0,0.0,52.0,13.0,1.0,0.0,0.0,37.0,41.0,6.0,51.0,12.0,6.0,22.0,30.0,51.0,9.0,7.0,16.0,6.0,8.0,14.0,12.0
Gujarat,Banas Kantha,24.258538965517253,71.93205252873561,469,3120506,938.0,55.0,65.0,43.0,10.0,9.0,40.0,52.0,27.0,81.0,19.0,60.0,93.0,7.0,0.0,0.0,0.0,0.0,0.0,0.0,49.0,11.0,0.0,3.0,83.0,17.0,9.0,3.0,7.0,9.0,18.0,46.0,12.0,29.0,5.0,8.0,4.0,2.0,0.0,40.0,64.0,24.0,13.0,0.0,43.0,22.0,2.0,0.0,0.0,18.0,28.0,11.0,59.0,2.0,11.0,33.0,25.0,59.0,5.0,6.0,11.0,7.0,9.0,16.0,2.0
Gujarat,Bharuch,21.75787276237761,72.67326346710801,488,1551019,925.0,72.0,77.0,66.0,4.0,31.0,40.0,58.0,21.0,84.0,16.0,60.0,77.0,22.0,1.0,0.0,0.0,0.0,0.0,0.0,64.0,25.0,2.0,6.0,62.0,38.0,20.0,4.0,10.0,22.0,37.0,45.0,12.0,28.0,12.0,14.0,6.0,6.0,1.0,21.0,54.0,29.0,16.0,1.0,53.0,12.0,2.0,0.0,0.0,43.0,54.0,7.0,53.0,10.0,7.0,24.0,28.0,53.0,9.0,7.0,16.0,6.0,9.0,15.0,10.0
Gujarat,Bhavnagar,21.70219390341736,72.16272632761141,481,2880365,933.0,66.0,73.0,58.0,5.0,0.0,40.0,56.0,22.0,86.0,14.0,60.0,91.0,7.0,0.0,0.0,0.0,1.0,0.0,0.0,67.0,23.0,1.0,4.0,52.0,48.0,32.0,2.0,10.0,27.0,39.0,54.0,16.0,36.0,10.0,11.0,4.0,4.0,1.0,19.0,59.0,25.0,15.0,0.0,52.0,11.0,4.0,0.0,0.0,39.0,50.0,7.0,51.0,8.0,7.0,23.0,27.0,51.0,7.0,9.0,17.0,7.0,11.0,18.0,8.0
Gujarat,Gandhinagar,23.193679790026252,72.67221679790026,473,1391753,923.0,74.0,80.0,67.0,8.0,1.0,38.0,56.0,19.0,84.0,16.0,62.0,95.0,4.0,0.0,0.0,0.0,0.0,0.0,0.0,61.0,31.0,3.0,8.0,55.0,45.0,28.0,6.0,14.0,25.0,41.0,47.0,10.0,28.0,10.0,15.0,7.0,8.0,1.0,19.0,55.0,28.0,16.0,0.0,59.0,6.0,0.0,0.0,0.0,40.0,45.0,8.0,53.0,7.0,8.0,26.0,27.0,53.0,6.0,9.0,15.0,7.0,11.0,18.0,7.0
Gujarat,Jamnagar,22.410600414263328,69.62062005768233,477,2160119,939.0,65.0,71.0,57.0,8.0,1.0,39.0,58.0,19.0,85.0,15.0,61.0,84.0,15.0,0.0,0.0,0.0,1.0,0.0,0.0,60.0,22.0,2.0,5.0,54.0,46.0,24.0,3.0,10.0,29.0,42.0,51.0,14.0,27.0,11.0,11.0,4.0,5.0,1.0,28.0,57.0,27.0,17.0,0.0,45.0,11.0,4.0,0.0,0.0,38.0,44.0,5.0,48.0,11.0,5.0,21.0,28.0,48.0,10.0,9.0,19.0,6.0,11.0,17.0,11.0
Gujarat,Junagadh,20.929523011609785,70.54733890140345,479,2743082,953.0,67.0,75.0,59.0,10.0,2.0,41.0,57.0,24.0,84.0,16.0,59.0,87.0,12.0,0.0,0.0,0.0,0.0,0.0,0.0,64.0,19.0,1.0,3.0,63.0,37.0,24.0,2.0,8.0,25.0,41.0,52.0,11.0,27.0,12.0,12.0,5.0,5.0,1.0,26.0,56.0,27.0,17.0,0.0,43.0,13.0,5.0,0.0,0.0,40.0,44.0,8.0,54.0,7.0,8.0,26.0,27.0,54.0,7.0,8.0,15.0,7.0,11.0,17.0,7.0
Gujarat,Kachchh,23.48057203301311,68.82192301497916,468,2092371,908.0,60.0,67.0,52.0,12.0,1.0,37.0,57.0,15.0,88.0,12.0,63.0,77.0,21.0,0.0,0.0,0.0,1.0,0.0,0.0,55.0,19.0,1.0,4.0,66.0,34.0,11.0,4.0,9.0,19.0,34.0,46.0,14.0,27.0,8.0,9.0,4.0,3.0,1.0,34.0,61.0,25.0,14.0,0.0,50.0,3.0,1.0,0.0,0.0,38.0,45.0,5.0,49.0,15.0,5.0,18.0,31.0,49.0,12.0,7.0,19.0,5.0,7.0,13.0,15.0
Gujarat,Kheda,22.88765312500002,73.018803515625,483,2299885,940.0,72.0,79.0,64.0,5.0,2.0,41.0,57.0,23.0,77.0,23.0,59.0,87.0,11.0,1.0,0.0,0.0,0.0,0.0,0.0,60.0,16.0,1.0,4.0,74.0,26.0,24.0,2.0,10.0,14.0,28.0,35.0,13.0,29.0,11.0,14.0,7.0,4.0,1.0,22.0,55.0,27.0,17.0,1.0,49.0,20.0,3.0,0.0,0.0,28.0,36.0,8.0,54.0,9.0,8.0,27.0,27.0,54.0,8.0,7.0,14.0,6.0,9.0,15.0,9.0
Gujarat,Mahesana,23.529355452865065,72.45545194085031,471,2035064,926.0,74.0,80.0,67.0,8.0,0.0,40.0,56.0,23.0,86.0,14.0,60.0,93.0,7.0,0.0,0.0,0.0,0.0,0.0,0.0,58.0,27.0,1.0,5.0,72.0,28.0,22.0,4.0,7.0,18.0,37.0,46.0,14.0,24.0,10.0,14.0,7.0,7.0,1.0,23.0,55.0,27.0,18.0,0.0,57.0,6.0,0.0,0.0,0.0,35.0,44.0,8.0,55.0,7.0,8.0,28.0,28.0,55.0,6.0,7.0,13.0,6.0,10.0,16.0,7.0
Gujarat,Narmada,21.70666386292833,73.68403208722742,487,590297,961.0,63.0,70.0,55.0,1.0,82.0,50.0,58.0,42.0,66.0,34.0,50.0,95.0,4.0,1.0,0.0,0.0,0.0,0.0,0.0,64.0,8.0,0.0,3.0,86.0,14.0,18.0,2.0,8.0,12.0,19.0,27.0,13.0,26.0,10.0,9.0,5.0,3.0,1.0,34.0,57.0,27.0,16.0,0.0,26.0,46.0,1.0,1.0,1.0,17.0,41.0,10.0,60.0,3.0,10.0,33.0,27.0,60.0,4.0,6.0,10.0,6.0,10.0,17.0,3.0
Gujarat,Navsari,20.866973318871995,72.86184869848157,490,1329672,961.0,75.0,80.0,71.0,3.0,48.0,45.0,60.0,28.0,86.0,14.0,55.0,92.0,6.0,0.0,0.0,0.0,1.0,0.0,0.0,65.0,28.0,2.0,6.0,65.0,35.0,33.0,5.0,14.0,28.0,37.0,47.0,12.0,22.0,11.0,16.0,9.0,7.0,2.0,21.0,51.0,29.0,19.0,1.0,36.0,28.0,5.0,0.0,0.0,41.0,49.0,5.0,50.0,14.0,5.0,19.0,31.0,50.0,12.0,7.0,19.0,5.0,8.0,13.0,14.0
Gujarat,Panch Mahals,22.80435606837605,73.61984598290586,484,2390776,949.0,60.0,70.0,50.0,4.0,30.0,46.0,55.0,36.0,62.0,38.0,54.0,93.0,7.0,0.0,0.0,0.0,0.0,0.0,0.0,70.0,10.0,1.0,3.0,82.0,18.0,21.0,2.0,9.0,13.0,16.0,38.0,11.0,26.0,9.0,12.0,6.0,3.0,1.0,33.0,59.0,25.0,15.0,0.0,21.0,36.0,16.0,0.0,1.0,21.0,32.0,10.0,59.0,3.0,10.0,32.0,27.0,59.0,5.0,6.0,11.0,6.0,11.0,17.0,3.0
Gujarat,Patan,23.80634198473284,71.75162977099237,470,1343734,935.0,62.0,71.0,53.0,9.0,1.0,41.0,55.0,26.0,80.0,20.0,59.0,89.0,11.0,0.0,0.0,0.0,0.0,0.0,0.0,55.0,16.0,1.0,3.0,75.0,25.0,16.0,2.0,6.0,10.0,27.0,44.0,13.0,28.0,6.0,10.0,4.0,4.0,1.0,35.0,59.0,25.0,16.0,0.0,58.0,5.0,1.0,0.0,0.0,31.0,39.0,9.0,56.0,4.0,9.0,30.0,27.0,56.0,6.0,7.0,13.0,7.0,11.0,17.0,4.0
Gujarat,Porbandar,21.55092351651571,69.71896987722886,478,585449,950.0,67.0,74.0,60.0,9.0,2.0,39.0,58.0,20.0,85.0,15.0,61.0,94.0,6.0,0.0,0.0,0.0,0.0,0.0,0.0,64.0,23.0,1.0,3.0,52.0,48.0,22.0,2.0,10.0,25.0,44.0,51.0,10.0,29.0,14.0,12.0,5.0,4.0,1.0,26.0,54.0,28.0,18.0,0.0,42.0,9.0,8.0,0.0,0.0,39.0,44.0,5.0,47.0,13.0,5.0,19.0,28.0,47.0,9.0,10.0,19.0,6.0,10.0,16.0,13.0
Gujarat,Rajkot,22.40603377715488,70.83679439383323,476,3804558,927.0,72.0,77.0,66.0,8.0,1.0,39.0,59.0,17.0,90.0,10.0,61.0,89.0,9.0,0.0,0.0,0.0,1.0,0.0,0.0,63.0,31.0,2.0,6.0,39.0,61.0,30.0,5.0,18.0,36.0,48.0,55.0,11.0,26.0,12.0,16.0,6.0,8.0,1.0,21.0,55.0,28.0,17.0,0.0,55.0,7.0,1.0,0.0,0.0,46.0,50.0,5.0,47.0,11.0,5.0,20.0,27.0,47.0,9.0,10.0,19.0,7.0,11.0,18.0,11.0
Gujarat,Sabar Kantha,23.71803594548552,73.13638790459964,472,2428589,952.0,65.0,74.0,56.0,8.0,22.0,45.0,55.0,34.0,73.0,27.0,55.0,93.0,6.0,0.0,0.0,0.0,0.0,0.0,0.0,66.0,15.0,1.0,4.0,82.0,18.0,17.0,3.0,6.0,18.0,27.0,40.0,9.0,25.0,9.0,14.0,8.0,5.0,1.0,28.0,57.0,26.0,17.0,0.0,44.0,21.0,4.0,0.0,0.0,27.0,35.0,10.0,60.0,3.0,10.0,32.0,28.0,60.0,4.0,6.0,11.0,6.0,10.0,17.0,3.0
Gujarat,Surat,21.25761372772093,72.93488716344339,492,6081322,787.0,75.0,79.0,70.0,3.0,14.0,42.0,63.0,15.0,94.0,6.0,58.0,86.0,11.0,0.0,0.0,0.0,2.0,0.0,0.0,66.0,43.0,3.0,8.0,19.0,81.0,21.0,6.0,21.0,28.0,42.0,52.0,10.0,25.0,15.0,16.0,8.0,7.0,1.0,17.0,59.0,29.0,12.0,1.0,55.0,11.0,1.0,0.0,0.0,58.0,61.0,4.0,45.0,10.0,4.0,18.0,27.0,45.0,11.0,10.0,21.0,7.0,12.0,19.0,10.0
Gujarat,Surendranagar,22.82672007299272,71.48358740875906,475,1756268,930.0,62.0,71.0,53.0,10.0,1.0,41.0,55.0,26.0,81.0,19.0,59.0,92.0,6.0,0.0,0.0,0.0,1.0,0.0,0.0,60.0,16.0,1.0,3.0,68.0,32.0,27.0,2.0,9.0,20.0,35.0,49.0,14.0,29.0,10.0,10.0,4.0,3.0,1.0,29.0,59.0,25.0,16.0,0.0,48.0,6.0,7.0,0.0,0.0,24.0,39.0,9.0,55.0,4.0,9.0,29.0,26.0,55.0,6.0,8.0,14.0,7.0,11.0,18.0,4.0
Gujarat,The Dangs,20.801633877551023,73.6883518367347,489,228291,1006.0,62.0,68.0,56.0,0.0,95.0,52.0,54.0,50.0,74.0,26.0,48.0,89.0,2.0,9.0,0.0,0.0,0.0,0.0,0.0,50.0,3.0,0.0,2.0,87.0,13.0,12.0,2.0,15.0,9.0,16.0,19.0,18.0,25.0,7.0,6.0,3.0,1.0,1.0,38.0,64.0,23.0,13.0,0.0,14.0,40.0,16.0,2.0,2.0,23.0,35.0,13.0,63.0,0.0,13.0,38.0,25.0,63.0,3.0,5.0,8.0,7.0,8.0,15.0,0.0
Gujarat,Vadodara,22.26133739279589,73.49433010291594,486,4165626,934.0,69.0,75.0,64.0,5.0,28.0,41.0,57.0,23.0,80.0,20.0,59.0,89.0,9.0,1.0,0.0,0.0,1.0,0.0,0.0,64.0,33.0,4.0,9.0,44.0,56.0,32.0,6.0,21.0,28.0,40.0,47.0,10.0,23.0,12.0,13.0,7.0,8.0,2.0,24.0,53.0,29.0,18.0,1.0,52.0,16.0,1.0,0.0,0.0,44.0,51.0,5.0,47.0,14.0,5.0,18.0,29.0,47.0,9.0,9.0,19.0,6.0,9.0,15.0,14.0
Gujarat,Valsad,20.44238231644259,72.9148584798345,491,1705678,922.0,69.0,74.0,63.0,2.0,53.0,44.0,58.0,28.0,78.0,22.0,56.0,92.0,6.0,1.0,0.0,0.0,1.0,0.0,0.0,66.0,28.0,2.0,6.0,53.0,47.0,24.0,5.0,10.0,26.0,38.0,49.0,11.0,20.0,11.0,14.0,8.0,6.0,2.0,27.0,55.0,28.0,15.0,1.0,24.0,38.0,6.0,0.0,1.0,34.0,47.0,7.0,52.0,10.0,7.0,25.0,27.0,52.0,8.0,8.0,16.0,6.0,10.0,16.0,10.0
Haryana,Ambala,30.3503672316384,76.94970310734456,70,1128350,885.0,72.0,77.0,67.0,26.0,0.0,33.0,53.0,10.0,86.0,14.0,67.0,85.0,2.0,0.0,12.0,0.0,0.0,0.0,0.0,63.0,39.0,4.0,10.0,56.0,44.0,42.0,8.0,10.0,29.0,55.0,54.0,9.0,17.0,16.0,16.0,10.0,9.0,2.0,22.0,55.0,27.0,18.0,0.0,55.0,10.0,0.0,0.0,0.0,45.0,59.0,4.0,40.0,11.0,4.0,18.0,22.0,40.0,14.0,11.0,24.0,8.0,13.0,21.0,11.0
Haryana,Bhiwani,28.728868064516128,76.02110225806452,81,1634445,886.0,65.0,74.0,56.0,21.0,0.0,38.0,50.0,25.0,72.0,28.0,62.0,99.0,1.0,0.0,0.0,0.0,0.0,0.0,0.0,58.0,19.0,1.0,6.0,78.0,22.0,22.0,4.0,13.0,14.0,39.0,53.0,12.0,14.0,13.0,14.0,10.0,7.0,1.0,30.0,59.0,25.0,16.0,0.0,45.0,15.0,5.0,0.0,0.0,39.0,53.0,4.0,41.0,4.0,4.0,23.0,19.0,41.0,16.0,8.0,25.0,10.0,15.0,25.0,4.0
Haryana,Faridabad,28.14873109756098,77.32718536585368,88,1809733,873.0,70.0,76.0,64.0,12.0,0.0,32.0,49.0,12.0,86.0,14.0,68.0,88.0,9.0,1.0,2.0,0.0,0.0,0.0,1.0,71.0,55.0,9.0,18.0,19.0,81.0,36.0,13.0,14.0,32.0,59.0,64.0,8.0,13.0,12.0,17.0,11.0,16.0,2.0,21.0,61.0,27.0,13.0,0.0,45.0,24.0,0.0,0.0,0.0,63.0,67.0,3.0,40.0,10.0,3.0,14.0,26.0,40.0,13.0,13.0,25.0,8.0,13.0,21.0,10.0
Haryana,Fatehabad,29.57298318584072,75.54608716814157,78,942011,902.0,59.0,66.0,52.0,30.0,0.0,39.0,53.0,24.0,78.0,22.0,61.0,83.0,1.0,0.0,16.0,0.0,0.0,0.0,0.0,59.0,20.0,1.0,5.0,79.0,21.0,33.0,5.0,12.0,20.0,41.0,53.0,12.0,15.0,11.0,11.0,7.0,4.0,1.0,39.0,59.0,25.0,16.0,0.0,50.0,16.0,0.0,0.0,1.0,52.0,59.0,5.0,42.0,2.0,5.0,24.0,18.0,42.0,16.0,9.0,25.0,10.0,16.0,26.0,2.0
Haryana,Gurgaon,28.043894789579163,77.01935130260523,86,1514432,854.0,73.0,78.0,68.0,13.0,0.0,36.0,53.0,16.0,89.0,11.0,64.0,93.0,5.0,1.0,1.0,0.0,0.0,0.0,0.0,58.0,46.0,13.0,20.0,27.0,73.0,20.0,18.0,16.0,25.0,47.0,52.0,9.0,13.0,13.0,16.0,11.0,17.0,3.0,19.0,58.0,28.0,14.0,0.0,42.0,18.0,0.0,0.0,0.0,52.0,56.0,3.0,36.0,19.0,3.0,13.0,23.0,36.0,13.0,12.0,26.0,7.0,10.0,17.0,19.0
Haryana,Hisar,29.23628731117825,75.84324682779452,80,1743931,872.0,64.0,72.0,55.0,23.0,0.0,40.0,52.0,25.0,77.0,23.0,60.0,98.0,1.0,0.0,1.0,0.0,0.0,0.0,0.0,62.0,24.0,2.0,7.0,66.0,34.0,32.0,5.0,14.0,20.0,44.0,57.0,12.0,14.0,12.0,13.0,9.0,7.0,1.0,32.0,58.0,26.0,15.0,0.0,48.0,17.0,3.0,0.0,1.0,51.0,60.0,5.0,42.0,3.0,5.0,23.0,19.0,42.0,16.0,9.0,25.0,10.0,16.0,26.0,3.0
Haryana,Jhajjar,28.59651868131869,76.61137142857145,83,958405,862.0,71.0,78.0,62.0,18.0,0.0,34.0,49.0,17.0,75.0,25.0,66.0,99.0,1.0,0.0,0.0,0.0,0.0,0.0,0.0,58.0,24.0,2.0,7.0,73.0,27.0,24.0,5.0,14.0,18.0,44.0,50.0,11.0,13.0,14.0,18.0,12.0,7.0,1.0,24.0,57.0,26.0,17.0,0.0,46.0,13.0,2.0,0.0,0.0,43.0,53.0,4.0,40.0,12.0,4.0,19.0,21.0,40.0,14.0,10.0,24.0,8.0,13.0,21.0,12.0
Haryana,Jind,29.45149821958457,76.29598575667653,77,1334152,871.0,62.0,70.0,53.0,21.0,0.0,39.0,52.0,25.0,74.0,26.0,61.0,96.0,2.0,0.0,2.0,0.0,0.0,0.0,0.0,60.0,21.0,1.0,6.0,76.0,24.0,31.0,4.0,11.0,17.0,44.0,53.0,11.0,15.0,12.0,13.0,9.0,5.0,1.0,34.0,59.0,25.0,16.0,0.0,35.0,24.0,4.0,0.0,0.0,40.0,51.0,5.0,42.0,1.0,5.0,24.0,18.0,42.0,16.0,9.0,25.0,10.0,16.0,27.0,1.0
Haryana,Kaithal,29.96068539094649,76.37698930041155,73,1074304,881.0,60.0,68.0,52.0,23.0,0.0,35.0,51.0,16.0,78.0,22.0,65.0,91.0,1.0,0.0,8.0,0.0,0.0,0.0,0.0,61.0,20.0,1.0,5.0,75.0,25.0,31.0,4.0,12.0,19.0,46.0,50.0,12.0,15.0,12.0,11.0,8.0,5.0,1.0,36.0,59.0,25.0,16.0,0.0,38.0,25.0,0.0,0.0,0.0,41.0,50.0,5.0,42.0,2.0,5.0,24.0,18.0,42.0,16.0,9.0,25.0,10.0,16.0,26.0,2.0
Haryana,Karnal,29.703200647249204,76.87488025889972,74,1505324,887.0,65.0,71.0,58.0,23.0,0.0,34.0,52.0,15.0,80.0,20.0,66.0,89.0,2.0,0.0,8.0,0.0,0.0,0.0,0.0,62.0,33.0,3.0,7.0,68.0,32.0,34.0,6.0,9.0,25.0,50.0,50.0,11.0,16.0,13.0,13.0,9.0,7.0,1.0,30.0,59.0,25.0,16.0,0.0,54.0,12.0,0.0,0.0,0.0,50.0,56.0,4.0,41.0,5.0,4.0,22.0,20.0,41.0,16.0,9.0,25.0,9.0,15.0,25.0,5.0
Haryana,Kurukshetra,30.05652659846548,76.78774680306903,72,964655,888.0,67.0,73.0,61.0,22.0,0.0,35.0,53.0,15.0,85.0,15.0,65.0,83.0,2.0,0.0,15.0,0.0,0.0,0.0,0.0,59.0,31.0,3.0,8.0,70.0,30.0,37.0,7.0,11.0,25.0,49.0,50.0,10.0,16.0,13.0,13.0,9.0,8.0,1.0,29.0,57.0,26.0,17.0,0.0,52.0,9.0,0.0,0.0,0.0,47.0,52.0,4.0,40.0,9.0,4.0,19.0,21.0,40.0,15.0,9.0,24.0,9.0,14.0,22.0,9.0
Haryana,Mahendragarh,28.1352161458333,76.14018072916659,84,922088,895.0,68.0,78.0,57.0,17.0,0.0,37.0,48.0,24.0,63.0,37.0,63.0,99.0,1.0,0.0,0.0,0.0,0.0,0.0,0.0,51.0,17.0,1.0,5.0,83.0,17.0,20.0,3.0,10.0,17.0,33.0,50.0,10.0,15.0,14.0,15.0,10.0,7.0,1.0,27.0,57.0,25.0,17.0,0.0,40.0,15.0,2.0,0.0,0.0,28.0,42.0,4.0,41.0,8.0,4.0,21.0,19.0,41.0,16.0,8.0,24.0,9.0,14.0,23.0,8.0
Haryana,Panchkula,30.700897142857134,76.97173238095236,69,561293,873.0,72.0,77.0,67.0,18.0,0.0,38.0,55.0,18.0,86.0,14.0,62.0,87.0,4.0,0.0,7.0,0.0,0.0,0.0,0.0,63.0,42.0,11.0,20.0,43.0,57.0,26.0,18.0,17.0,30.0,54.0,56.0,9.0,14.0,12.0,14.0,10.0,16.0,2.0,23.0,55.0,28.0,17.0,0.0,61.0,3.0,0.0,0.0,0.0,47.0,57.0,3.0,37.0,16.0,3.0,14.0,24.0,37.0,13.0,12.0,25.0,7.0,11.0,18.0,16.0
Haryana,Panipat,29.34352134146342,76.92895914634147,75,1205437,864.0,65.0,72.0,58.0,17.0,0.0,34.0,51.0,15.0,82.0,18.0,66.0,90.0,7.0,0.0,2.0,0.0,0.0,0.0,0.0,64.0,37.0,3.0,8.0,53.0,47.0,28.0,5.0,8.0,23.0,50.0,53.0,11.0,16.0,14.0,13.0,9.0,7.0,1.0,28.0,61.0,25.0,14.0,0.0,45.0,21.0,0.0,0.0,0.0,54.0,58.0,4.0,40.0,9.0,4.0,17.0,23.0,40.0,14.0,11.0,25.0,8.0,14.0,22.0,9.0
Haryana,Rewari,28.19164714828897,76.55956007604564,85,900332,898.0,71.0,79.0,61.0,20.0,0.0,38.0,50.0,24.0,74.0,26.0,62.0,99.0,1.0,0.0,0.0,0.0,0.0,0.0,0.0,57.0,23.0,2.0,7.0,74.0,26.0,27.0,5.0,11.0,22.0,40.0,51.0,10.0,14.0,15.0,17.0,11.0,8.0,1.0,25.0,58.0,26.0,17.0,0.0,46.0,14.0,1.0,0.0,0.0,37.0,50.0,4.0,39.0,13.0,4.0,18.0,21.0,39.0,14.0,11.0,24.0,8.0,12.0,20.0,13.0
Haryana,Rohtak,28.892517647058817,76.53123235294117,82,1061204,867.0,70.0,77.0,63.0,20.0,0.0,33.0,48.0,15.0,84.0,16.0,67.0,98.0,1.0,0.0,0.0,0.0,0.0,0.0,0.0,63.0,31.0,3.0,9.0,57.0,43.0,30.0,5.0,13.0,21.0,49.0,52.0,11.0,14.0,13.0,16.0,10.0,9.0,2.0,24.0,57.0,25.0,17.0,0.0,50.0,12.0,3.0,0.0,0.0,48.0,57.0,3.0,40.0,13.0,3.0,16.0,23.0,40.0,13.0,12.0,24.0,8.0,12.0,20.0,13.0
Haryana,Sirsa,29.63583446327684,74.90970480225988,79,1295189,897.0,60.0,67.0,53.0,30.0,0.0,39.0,54.0,22.0,80.0,20.0,61.0,73.0,1.0,0.0,26.0,0.0,0.0,0.0,0.0,64.0,21.0,2.0,7.0,72.0,28.0,35.0,7.0,13.0,22.0,44.0,56.0,12.0,17.0,13.0,11.0,7.0,5.0,1.0,34.0,58.0,26.0,16.0,0.0,60.0,8.0,0.0,0.0,1.0,64.0,64.0,4.0,41.0,5.0,4.0,21.0,20.0,41.0,16.0,9.0,25.0,9.0,15.0,25.0,5.0
Himachal Pradesh,Bilaspur,31.3780422907489,76.65316079295157,30,381956,981.0,75.0,81.0,70.0,26.0,3.0,54.0,58.0,50.0,50.0,50.0,46.0,97.0,2.0,0.0,1.0,0.0,0.0,0.0,0.0,48.0,10.0,1.0,4.0,93.0,7.0,3.0,4.0,9.0,7.0,37.0,41.0,10.0,17.0,15.0,18.0,13.0,7.0,1.0,19.0,51.0,28.0,21.0,0.0,41.0,3.0,1.0,0.0,0.0,35.0,37.0,14.0,51.0,2.0,14.0,33.0,18.0,51.0,7.0,6.0,13.0,9.0,10.0,19.0,2.0
Himachal Pradesh,Bilaspur,31.3780422907489,76.65316079295157,406,2663629,971.0,60.0,69.0,51.0,21.0,19.0,45.0,53.0,37.0,69.0,31.0,55.0,95.0,2.0,1.0,0.0,0.0,0.0,1.0,0.0,70.0,11.0,1.0,4.0,74.0,26.0,47.0,2.0,13.0,12.0,26.0,24.0,15.0,16.0,13.0,7.0,6.0,5.0,1.0,37.0,61.0,25.0,14.0,0.0,21.0,52.0,9.0,0.0,0.0,23.0,18.0,16.0,61.0,7.0,16.0,32.0,29.0,61.0,8.0,3.0,11.0,3.0,3.0,6.0,7.0
Himachal Pradesh,Chamba,32.66741814595661,76.39354063116366,23,519080,986.0,62.0,71.0,53.0,22.0,26.0,57.0,61.0,52.0,41.0,59.0,43.0,92.0,6.0,0.0,1.0,0.0,0.0,0.0,0.0,48.0,11.0,1.0,3.0,93.0,7.0,1.0,3.0,13.0,4.0,31.0,37.0,11.0,19.0,14.0,13.0,8.0,3.0,1.0,31.0,59.0,25.0,16.0,0.0,48.0,1.0,0.0,1.0,0.0,26.0,23.0,12.0,52.0,10.0,12.0,29.0,23.0,52.0,8.0,4.0,12.0,5.0,8.0,13.0,10.0
Himachal Pradesh,Hamirpur,31.67668481012659,76.49767088607594,28,454768,1095.0,79.0,83.0,75.0,24.0,1.0,53.0,55.0,52.0,52.0,48.0,47.0,99.0,1.0,0.0,0.0,0.0,0.0,0.0,0.0,49.0,17.0,1.0,4.0,93.0,7.0,3.0,3.0,11.0,8.0,41.0,43.0,8.0,16.0,16.0,20.0,14.0,8.0,1.0,16.0,49.0,27.0,23.0,0.0,45.0,3.0,1.0,0.0,0.0,44.0,41.0,11.0,52.0,13.0,11.0,27.0,24.0,52.0,9.0,4.0,13.0,5.0,7.0,12.0,13.0
Himachal Pradesh,Hamirpur,31.67668481012659,76.49767088607594,168,1104285,861.0,59.0,69.0,48.0,22.0,0.0,40.0,52.0,26.0,65.0,35.0,60.0,91.0,8.0,0.0,0.0,0.0,0.0,0.0,0.0,18.0,6.0,0.0,4.0,82.0,18.0,32.0,1.0,18.0,8.0,16.0,44.0,13.0,20.0,18.0,9.0,5.0,5.0,0.0,30.0,60.0,24.0,16.0,0.0,13.0,51.0,3.0,0.0,0.0,22.0,39.0,19.0,57.0,2.0,19.0,38.0,19.0,57.0,7.0,10.0,17.0,3.0,3.0,6.0,2.0
Himachal Pradesh,Kangra,32.14093603238864,76.41205910931173,24,1510075,1012.0,76.0,81.0,72.0,21.0,6.0,45.0,54.0,36.0,46.0,54.0,55.0,97.0,1.0,0.0,1.0,1.0,0.0,0.0,0.0,53.0,24.0,1.0,4.0,94.0,6.0,6.0,4.0,12.0,11.0,43.0,44.0,9.0,17.0,15.0,20.0,13.0,6.0,1.0,19.0,51.0,28.0,21.0,0.0,48.0,3.0,1.0,0.0,0.0,35.0,37.0,11.0,52.0,13.0,11.0,28.0,25.0,52.0,9.0,4.0,12.0,4.0,7.0,12.0,13.0
Himachal Pradesh,Kinnaur,31.60667184065933,78.51613736263741,34,84121,819.0,72.0,79.0,63.0,18.0,58.0,67.0,73.0,59.0,83.0,17.0,33.0,77.0,1.0,1.0,0.0,21.0,0.0,0.0,0.0,40.0,24.0,1.0,6.0,100.0,0.0,0.0,6.0,14.0,2.0,29.0,37.0,12.0,18.0,15.0,15.0,10.0,7.0,1.0,22.0,50.0,32.0,18.0,0.0,40.0,0.0,0.0,1.0,0.0,30.0,31.0,12.0,53.0,13.0,12.0,29.0,24.0,53.0,8.0,3.0,12.0,4.0,7.0,12.0,13.0
Himachal Pradesh,Kullu,31.90911922077925,77.40922649350647,26,437903,942.0,70.0,77.0,63.0,28.0,4.0,61.0,66.0,57.0,72.0,28.0,39.0,95.0,1.0,0.0,0.0,4.0,0.0,0.0,0.0,48.0,21.0,1.0,4.0,89.0,11.0,1.0,4.0,12.0,4.0,35.0,42.0,12.0,19.0,15.0,14.0,9.0,6.0,1.0,25.0,56.0,28.0,17.0,0.0,47.0,1.0,0.0,0.0,0.0,30.0,35.0,11.0,52.0,12.0,11.0,28.0,24.0,52.0,8.0,4.0,12.0,5.0,8.0,13.0,12.0
Himachal Pradesh,Mandi,31.635805940594054,76.96556930693067,27,999777,1007.0,72.0,79.0,66.0,29.0,1.0,57.0,60.0,55.0,50.0,50.0,43.0,98.0,1.0,0.0,0.0,0.0,0.0,0.0,0.0,46.0,13.0,1.0,4.0,93.0,7.0,2.0,3.0,12.0,6.0,34.0,37.0,10.0,16.0,13.0,18.0,13.0,6.0,1.0,22.0,52.0,28.0,19.0,0.0,45.0,0.0,0.0,0.0,0.0,39.0,38.0,13.0,52.0,10.0,13.0,29.0,23.0,52.0,7.0,4.0,11.0,5.0,8.0,13.0,10.0
Himachal Pradesh,Shimla,31.155725451807253,77.62573042168668,33,814010,915.0,75.0,81.0,69.0,27.0,1.0,53.0,61.0,44.0,72.0,28.0,47.0,97.0,1.0,0.0,0.0,0.0,0.0,0.0,0.0,46.0,29.0,2.0,6.0,74.0,26.0,1.0,6.0,19.0,2.0,35.0,43.0,9.0,15.0,15.0,19.0,13.0,11.0,1.0,18.0,52.0,30.0,18.0,0.0,44.0,0.0,1.0,0.0,0.0,33.0,41.0,9.0,49.0,14.0,9.0,24.0,25.0,49.0,9.0,6.0,15.0,5.0,8.0,13.0,14.0
Himachal Pradesh,Sirmaur,30.682764453961443,77.43184689507493,32,529855,918.0,68.0,74.0,62.0,30.0,2.0,53.0,61.0,44.0,69.0,31.0,47.0,90.0,6.0,0.0,3.0,0.0,0.0,0.0,0.0,48.0,15.0,1.0,4.0,89.0,11.0,9.0,4.0,14.0,9.0,31.0,39.0,11.0,20.0,15.0,13.0,8.0,5.0,1.0,28.0,59.0,26.0,16.0,0.0,39.0,5.0,1.0,1.0,1.0,31.0,39.0,13.0,52.0,8.0,13.0,29.0,22.0,52.0,7.0,5.0,11.0,6.0,9.0,15.0,8.0
Himachal Pradesh,Solan,31.03864311926604,76.94442140672783,31,580320,880.0,74.0,79.0,68.0,28.0,4.0,51.0,62.0,40.0,73.0,27.0,49.0,95.0,3.0,0.0,2.0,0.0,0.0,0.0,0.0,49.0,22.0,2.0,6.0,79.0,21.0,5.0,6.0,16.0,10.0,39.0,44.0,10.0,17.0,16.0,18.0,11.0,7.0,2.0,20.0,55.0,29.0,16.0,0.0,43.0,2.0,1.0,1.0,0.0,37.0,43.0,9.0,50.0,13.0,9.0,25.0,25.0,50.0,10.0,5.0,15.0,5.0,8.0,13.0,13.0
Himachal Pradesh,Una,31.58330388349513,76.18353932038836,29,521173,976.0,77.0,81.0,72.0,22.0,2.0,41.0,54.0,29.0,62.0,38.0,59.0,92.0,3.0,0.0,5.0,0.0,0.0,0.0,0.0,52.0,21.0,1.0,4.0,90.0,10.0,20.0,4.0,10.0,18.0,43.0,44.0,10.0,17.0,16.0,21.0,12.0,6.0,1.0,17.0,52.0,27.0,20.0,0.0,46.0,6.0,1.0,0.0,0.0,32.0,43.0,11.0,52.0,12.0,11.0,27.0,24.0,52.0,9.0,4.0,13.0,5.0,8.0,12.0,12.0
Jammu and Kashmir,Doda,33.359614675767915,76.07163720136518,16,409936,919.0,53.0,65.0,41.0,13.0,10.0,37.0,47.0,26.0,52.0,48.0,63.0,46.0,54.0,0.0,0.0,0.0,0.0,0.0,0.0,46.0,6.0,0.0,2.0,92.0,8.0,0.0,1.0,18.0,1.0,14.0,35.0,11.0,12.0,15.0,12.0,8.0,3.0,0.0,40.0,64.0,23.0,13.0,0.0,49.0,0.0,2.0,3.0,1.0,17.0,20.0,22.0,51.0,2.0,22.0,42.0,9.0,51.0,7.0,9.0,16.0,7.0,2.0,8.0,2.0
Jammu and Kashmir,Jammu,32.713199095022645,74.8477520361991,21,1529958,880.0,74.0,79.0,69.0,25.0,5.0,33.0,51.0,13.0,81.0,19.0,67.0,84.0,7.0,1.0,7.0,0.0,0.0,0.0,0.0,59.0,39.0,4.0,9.0,51.0,49.0,14.0,9.0,15.0,23.0,48.0,48.0,9.0,13.0,18.0,18.0,11.0,10.0,2.0,19.0,53.0,28.0,18.0,0.0,34.0,23.0,1.0,0.0,0.0,32.0,46.0,11.0,43.0,11.0,11.0,23.0,19.0,43.0,8.0,11.0,19.0,8.0,8.0,16.0,11.0
Jammu and Kashmir,Kargil,33.565994894894914,76.63675315315312,4,140802,810.0,61.0,72.0,48.0,0.0,87.0,37.0,51.0,19.0,56.0,44.0,63.0,7.0,77.0,0.0,1.0,14.0,0.0,0.0,0.0,33.0,7.0,0.0,2.0,84.0,16.0,1.0,4.0,23.0,1.0,17.0,22.0,10.0,16.0,17.0,14.0,8.0,3.0,0.0,32.0,62.0,25.0,12.0,0.0,22.0,7.0,0.0,1.0,5.0,37.0,25.0,18.0,53.0,3.0,18.0,41.0,13.0,53.0,6.0,8.0,14.0,9.0,1.0,10.0,3.0
Jammu and Kashmir,Kathua,32.51781678321678,75.58901398601404,7,616435,890.0,63.0,70.0,55.0,23.0,9.0,33.0,50.0,13.0,71.0,29.0,67.0,88.0,10.0,0.0,2.0,0.0,0.0,0.0,0.0,51.0,15.0,1.0,3.0,84.0,16.0,8.0,2.0,12.0,11.0,31.0,41.0,11.0,14.0,18.0,15.0,8.0,4.0,1.0,30.0,58.0,26.0,16.0,0.0,28.0,14.0,4.0,4.0,0.0,12.0,22.0,15.0,55.0,3.0,15.0,36.0,19.0,55.0,6.0,7.0,13.0,8.0,6.0,14.0,3.0
Jammu and Kashmir,Pulwama,33.88414418604652,75.00921860465118,12,560440,912.0,52.0,61.0,43.0,0.0,4.0,34.0,47.0,19.0,52.0,48.0,66.0,2.0,95.0,0.0,2.0,0.0,0.0,0.0,0.0,44.0,10.0,1.0,3.0,87.0,13.0,3.0,4.0,31.0,3.0,27.0,39.0,7.0,11.0,15.0,13.0,8.0,6.0,1.0,38.0,61.0,24.0,14.0,0.0,34.0,8.0,0.0,0.0,5.0,32.0,36.0,20.0,51.0,3.0,20.0,40.0,11.0,51.0,7.0,9.0,16.0,8.0,2.0,10.0,3.0
Jammu and Kashmir,Punch,33.791241290322574,74.29593161290322,5,476835,893.0,55.0,65.0,44.0,0.0,37.0,34.0,47.0,19.0,45.0,55.0,66.0,7.0,90.0,0.0,2.0,0.0,0.0,0.0,0.0,43.0,9.0,0.0,2.0,90.0,10.0,1.0,1.0,25.0,2.0,11.0,25.0,12.0,16.0,15.0,10.0,7.0,3.0,0.0,36.0,64.0,23.0,13.0,0.0,30.0,3.0,12.0,8.0,1.0,11.0,13.0,19.0,55.0,2.0,19.0,43.0,12.0,55.0,6.0,8.0,14.0,9.0,1.0,11.0,2.0
Jammu and Kashmir,Srinagar,34.27312898550724,75.11021159420288,10,1236829,900.0,61.0,66.0,54.0,0.0,1.0,33.0,51.0,13.0,81.0,19.0,67.0,3.0,95.0,0.0,1.0,0.0,0.0,0.0,0.0,63.0,53.0,6.0,13.0,2.0,98.0,17.0,13.0,49.0,15.0,58.0,60.0,7.0,14.0,15.0,15.0,11.0,10.0,3.0,26.0,56.0,28.0,15.0,0.0,63.0,1.0,0.0,0.0,0.0,63.0,63.0,8.0,35.0,14.0,8.0,14.0,22.0,35.0,10.0,12.0,23.0,8.0,12.0,20.0,14.0
Jammu and Kashmir,Udhampur,33.04770670731707,75.15286951219511,19,554985,870.0,58.0,67.0,48.0,25.0,10.0,44.0,55.0,31.0,63.0,37.0,56.0,88.0,11.0,0.0,1.0,0.0,0.0,0.0,0.0,40.0,11.0,1.0,3.0,81.0,19.0,2.0,2.0,16.0,5.0,20.0,35.0,11.0,15.0,16.0,10.0,6.0,3.0,1.0,37.0,61.0,25.0,13.0,0.0,26.0,3.0,5.0,12.0,1.0,10.0,12.0,17.0,52.0,3.0,17.0,38.0,13.0,52.0,7.0,8.0,15.0,10.0,3.0,13.0,3.0
Jharkhand,Bokaro,23.6814965034965,85.98398374125864,355,2062330,922.0,62.0,71.0,52.0,15.0,12.0,33.0,47.0,18.0,55.0,45.0,67.0,79.0,12.0,1.0,0.0,0.0,0.0,8.0,0.0,54.0,13.0,2.0,7.0,49.0,51.0,49.0,4.0,10.0,21.0,35.0,47.0,12.0,17.0,17.0,11.0,8.0,6.0,1.0,29.0,61.0,25.0,14.0,0.0,20.0,27.0,25.0,0.0,3.0,26.0,29.0,15.0,58.0,6.0,15.0,35.0,23.0,58.0,10.0,2.0,12.0,3.0,5.0,9.0,6.0
Jharkhand,Chatra,24.11619945750453,84.93295804701627,347,1042886,953.0,49.0,57.0,41.0,33.0,4.0,38.0,47.0,29.0,49.0,51.0,62.0,87.0,11.0,1.0,0.0,0.0,0.0,1.0,0.0,13.0,2.0,0.0,4.0,93.0,7.0,42.0,1.0,20.0,7.0,8.0,38.0,19.0,15.0,10.0,6.0,3.0,2.0,0.0,44.0,66.0,21.0,12.0,0.0,3.0,40.0,37.0,0.0,1.0,8.0,14.0,28.0,62.0,1.0,28.0,44.0,18.0,62.0,7.0,0.0,7.0,0.0,1.0,1.0,1.0
Jharkhand,Deoghar,24.33070100755672,86.75697632241814,350,1492073,925.0,53.0,63.0,42.0,13.0,12.0,37.0,50.0,23.0,54.0,46.0,63.0,78.0,20.0,0.0,0.0,0.0,0.0,1.0,0.0,40.0,8.0,1.0,4.0,80.0,20.0,54.0,1.0,10.0,10.0,20.0,39.0,14.0,18.0,13.0,6.0,4.0,3.0,0.0,42.0,63.0,23.0,14.0,0.0,3.0,44.0,31.0,0.0,1.0,13.0,16.0,26.0,61.0,3.0,26.0,41.0,20.0,61.0,7.0,1.0,7.0,1.0,2.0,3.0,3.0
Jharkhand,Dhanbad,23.854509090909097,86.40372924901185,354,2684487,909.0,64.0,72.0,55.0,16.0,9.0,31.0,47.0,15.0,65.0,35.0,69.0,80.0,16.0,0.0,0.0,0.0,0.0,3.0,0.0,64.0,13.0,2.0,7.0,39.0,61.0,43.0,3.0,7.0,20.0,44.0,49.0,12.0,20.0,18.0,12.0,7.0,4.0,1.0,26.0,61.0,24.0,13.0,2.0,30.0,23.0,18.0,0.0,1.0,30.0,34.0,13.0,57.0,7.0,13.0,33.0,24.0,57.0,10.0,3.0,12.0,4.0,6.0,9.0,7.0
Jharkhand,Dumka,24.275006125574265,87.27662450229711,362,1321442,977.0,51.0,61.0,41.0,6.0,43.0,47.0,55.0,39.0,38.0,62.0,53.0,79.0,8.0,7.0,0.0,0.0,0.0,6.0,0.0,19.0,4.0,0.0,3.0,93.0,7.0,54.0,1.0,11.0,7.0,10.0,23.0,17.0,17.0,11.0,5.0,3.0,2.0,0.0,45.0,60.0,25.0,15.0,0.0,3.0,55.0,22.0,1.0,1.0,8.0,9.0,28.0,62.0,1.0,28.0,43.0,18.0,62.0,7.0,0.0,7.0,0.0,1.0,1.0,1.0
Jharkhand,Garhwa,24.082114689265527,83.68664265536722,346,1322784,935.0,49.0,59.0,39.0,24.0,16.0,43.0,49.0,37.0,31.0,69.0,57.0,83.0,15.0,1.0,0.0,0.0,0.0,0.0,0.0,10.0,2.0,0.0,3.0,93.0,7.0,37.0,1.0,16.0,6.0,7.0,34.0,16.0,15.0,12.0,7.0,4.0,2.0,0.0,44.0,65.0,21.0,13.0,0.0,3.0,62.0,20.0,0.0,1.0,6.0,13.0,32.0,62.0,1.0,32.0,44.0,18.0,62.0,5.0,0.0,5.0,0.0,1.0,1.0,1.0
Jharkhand,Giridih,24.30578509874329,86.08710915619386,349,2445474,944.0,51.0,62.0,40.0,13.0,10.0,42.0,50.0,35.0,40.0,60.0,58.0,76.0,21.0,1.0,0.0,0.0,0.0,2.0,0.0,25.0,3.0,0.0,4.0,91.0,9.0,45.0,1.0,16.0,12.0,13.0,49.0,20.0,17.0,10.0,6.0,3.0,2.0,0.0,41.0,65.0,22.0,13.0,0.0,4.0,18.0,52.0,0.0,2.0,8.0,13.0,26.0,62.0,1.0,26.0,43.0,18.0,62.0,9.0,1.0,9.0,1.0,1.0,2.0,1.0
Jharkhand,Godda,24.8189,87.2941735483871,351,1313551,938.0,46.0,55.0,36.0,9.0,21.0,42.0,51.0,33.0,43.0,57.0,58.0,71.0,22.0,3.0,0.0,0.0,0.0,4.0,0.0,15.0,3.0,0.0,4.0,95.0,5.0,46.0,1.0,17.0,7.0,9.0,31.0,16.0,14.0,9.0,6.0,4.0,2.0,0.0,48.0,62.0,23.0,14.0,0.0,3.0,58.0,21.0,1.0,1.0,9.0,12.0,28.0,62.0,1.0,28.0,44.0,18.0,62.0,8.0,0.0,8.0,0.0,1.0,1.0,1.0
Jharkhand,Gumla,23.078532948929148,84.55056787479396,366,1025213,993.0,55.0,63.0,47.0,3.0,69.0,48.0,51.0,44.0,57.0,43.0,52.0,30.0,5.0,20.0,0.0,0.0,0.0,45.0,0.0,14.0,4.0,0.0,3.0,93.0,7.0,56.0,1.0,16.0,7.0,8.0,24.0,13.0,23.0,18.0,8.0,4.0,2.0,0.0,31.0,63.0,22.0,15.0,0.0,3.0,23.0,52.0,1.0,1.0,8.0,8.0,29.0,62.0,1.0,29.0,44.0,18.0,62.0,7.0,0.0,7.0,0.0,1.0,1.0,1.0
Jharkhand,Jamtara,23.97873318077801,86.95325080091534,363,791042,954.0,54.0,64.0,44.0,9.0,30.0,41.0,53.0,29.0,37.0,63.0,59.0,70.0,21.0,1.0,0.0,0.0,0.0,9.0,0.0,27.0,3.0,0.0,3.0,89.0,11.0,63.0,1.0,11.0,9.0,17.0,30.0,16.0,17.0,11.0,5.0,3.0,2.0,0.0,46.0,61.0,24.0,15.0,0.0,2.0,56.0,21.0,0.0,1.0,8.0,10.0,28.0,62.0,1.0,28.0,43.0,19.0,62.0,7.0,0.0,8.0,1.0,1.0,1.0,1.0
Jharkhand,Latehar,23.72511185840708,84.48298743362837,359,726978,967.0,48.0,57.0,39.0,21.0,46.0,43.0,49.0,37.0,37.0,63.0,57.0,65.0,10.0,7.0,0.0,0.0,0.0,18.0,0.0,24.0,1.0,0.0,4.0,91.0,9.0,39.0,1.0,18.0,5.0,7.0,25.0,15.0,16.0,12.0,6.0,3.0,2.0,0.0,46.0,67.0,21.0,12.0,0.0,2.0,44.0,31.0,1.0,2.0,9.0,10.0,27.0,62.0,1.0,27.0,44.0,18.0,62.0,9.0,0.0,9.0,1.0,1.0,1.0,1.0
Jharkhand,Lohardaga,23.488796043165483,84.6605169064748,356,461790,985.0,56.0,64.0,48.0,3.0,57.0,48.0,52.0,44.0,47.0,53.0,52.0,24.0,21.0,4.0,0.0,0.0,0.0,51.0,0.0,26.0,7.0,0.0,3.0,87.0,13.0,59.0,1.0,17.0,9.0,11.0,29.0,17.0,17.0,13.0,8.0,4.0,3.0,0.0,38.0,65.0,22.0,13.0,0.0,2.0,36.0,40.0,1.0,1.0,12.0,15.0,28.0,61.0,2.0,28.0,41.0,19.0,61.0,5.0,1.0,6.0,1.0,2.0,3.0,2.0
Jharkhand,Pakur,24.57260428082189,87.69691969178076,353,900422,989.0,39.0,46.0,33.0,3.0,42.0,45.0,52.0,38.0,62.0,38.0,55.0,46.0,36.0,8.0,0.0,0.0,0.0,10.0,0.0,14.0,2.0,0.0,2.0,92.0,8.0,47.0,0.0,11.0,4.0,8.0,18.0,11.0,15.0,9.0,3.0,2.0,1.0,0.0,60.0,65.0,23.0,12.0,0.0,3.0,64.0,12.0,3.0,1.0,8.0,7.0,31.0,62.0,1.0,31.0,44.0,18.0,62.0,5.0,0.0,5.0,0.0,1.0,1.0,1.0
Jharkhand,Palamu,24.196925968109337,84.20310842824594,358,1939869,928.0,53.0,62.0,43.0,28.0,9.0,37.0,47.0,26.0,40.0,60.0,63.0,87.0,12.0,0.0,0.0,0.0,0.0,0.0,0.0,17.0,4.0,1.0,5.0,87.0,13.0,39.0,2.0,18.0,7.0,13.0,41.0,15.0,15.0,12.0,8.0,5.0,3.0,0.0,41.0,64.0,22.0,14.0,0.0,4.0,59.0,21.0,0.0,1.0,11.0,20.0,27.0,62.0,2.0,27.0,43.0,19.0,62.0,8.0,0.0,8.0,0.0,1.0,1.0,2.0
Jharkhand,Ranchi,23.184235061391547,85.31781937244203,364,2914253,949.0,66.0,73.0,58.0,5.0,36.0,39.0,50.0,28.0,66.0,34.0,61.0,55.0,14.0,7.0,0.0,0.0,0.0,23.0,0.0,48.0,22.0,3.0,10.0,58.0,42.0,47.0,5.0,19.0,19.0,34.0,46.0,13.0,19.0,17.0,13.0,9.0,7.0,1.0,21.0,60.0,25.0,14.0,1.0,14.0,29.0,29.0,0.0,1.0,31.0,32.0,18.0,59.0,7.0,18.0,35.0,25.0,59.0,9.0,2.0,11.0,2.0,3.0,6.0,7.0
Jharkhand,Sahibganj,24.93667989690721,87.68264097938142,352,1150567,952.0,42.0,49.0,35.0,6.0,27.0,43.0,50.0,35.0,66.0,34.0,57.0,55.0,35.0,7.0,0.0,0.0,0.0,3.0,0.0,13.0,4.0,0.0,4.0,86.0,14.0,37.0,0.0,18.0,4.0,9.0,25.0,13.0,15.0,9.0,4.0,2.0,2.0,0.0,55.0,65.0,23.0,12.0,1.0,4.0,57.0,21.0,2.0,1.0,13.0,13.0,29.0,61.0,2.0,29.0,42.0,19.0,61.0,5.0,1.0,6.0,1.0,2.0,3.0,2.0
Jharkhand,Simdega,22.608760391198054,84.59193691931536,367,599578,997.0,57.0,64.0,51.0,7.0,71.0,48.0,53.0,43.0,54.0,46.0,52.0,34.0,3.0,51.0,0.0,0.0,0.0,12.0,0.0,11.0,2.0,0.0,3.0,93.0,7.0,55.0,1.0,11.0,6.0,5.0,18.0,14.0,22.0,17.0,8.0,4.0,2.0,0.0,32.0,60.0,24.0,16.0,0.0,2.0,28.0,42.0,1.0,1.0,6.0,6.0,30.0,62.0,1.0,30.0,43.0,19.0,62.0,5.0,0.0,6.0,1.0,1.0,2.0,1.0
Karnataka,Bagalkot,16.15860676328503,75.64526070853468,556,1889752,989.0,59.0,68.0,50.0,17.0,5.0,43.0,54.0,33.0,83.0,17.0,57.0,86.0,12.0,0.0,0.0,0.0,1.0,0.0,0.0,61.0,10.0,1.0,5.0,66.0,34.0,31.0,2.0,8.0,14.0,33.0,48.0,14.0,22.0,8.0,10.0,6.0,5.0,1.0,34.0,59.0,25.0,16.0,0.0,46.0,20.0,3.0,0.0,2.0,14.0,56.0,13.0,52.0,3.0,13.0,28.0,24.0,52.0,8.0,5.0,13.0,8.0,11.0,19.0,3.0
Karnataka,Bangalore Rural,12.936827087794448,77.47369314775169,583,990923,946.0,70.0,76.0,63.0,22.0,5.0,46.0,62.0,30.0,85.0,15.0,54.0,90.0,9.0,1.0,0.0,0.0,0.0,0.0,0.0,66.0,24.0,1.0,5.0,71.0,29.0,29.0,3.0,19.0,21.0,48.0,51.0,11.0,18.0,14.0,18.0,9.0,6.0,1.0,23.0,54.0,28.0,18.0,0.0,46.0,20.0,0.0,0.0,0.0,55.0,62.0,12.0,53.0,8.0,12.0,27.0,26.0,53.0,8.0,4.0,12.0,6.0,9.0,15.0,8.0
Karnataka,Belgaum,16.16107219152853,74.72329042357275,555,4779661,973.0,64.0,71.0,56.0,12.0,6.0,44.0,57.0,31.0,82.0,18.0,56.0,84.0,11.0,0.0,0.0,0.0,4.0,0.0,0.0,61.0,18.0,1.0,6.0,73.0,27.0,39.0,3.0,12.0,17.0,36.0,49.0,12.0,23.0,13.0,12.0,6.0,4.0,1.0,29.0,56.0,26.0,18.0,0.0,39.0,20.0,9.0,0.0,2.0,24.0,59.0,14.0,50.0,4.0,14.0,28.0,22.0,50.0,8.0,5.0,14.0,7.0,10.0,17.0,4.0
Karnataka,Bellary,15.074377548209377,76.47228471074374,565,2452595,983.0,58.0,66.0,50.0,21.0,18.0,46.0,57.0,34.0,87.0,13.0,54.0,86.0,13.0,1.0,0.0,0.0,0.0,0.0,0.0,71.0,18.0,2.0,6.0,60.0,40.0,26.0,2.0,7.0,18.0,47.0,52.0,12.0,23.0,10.0,9.0,5.0,4.0,1.0,35.0,61.0,25.0,14.0,0.0,62.0,11.0,1.0,0.0,1.0,25.0,67.0,11.0,51.0,7.0,11.0,25.0,26.0,51.0,9.0,5.0,14.0,7.0,11.0,17.0,7.0
Karnataka,Bidar,17.950361730769224,77.19459961538459,558,1703300,956.0,61.0,69.0,54.0,23.0,14.0,41.0,53.0,29.0,79.0,21.0,59.0,76.0,20.0,2.0,0.0,2.0,0.0,0.0,1.0,70.0,9.0,1.0,9.0,74.0,26.0,26.0,2.0,6.0,12.0,30.0,48.0,11.0,27.0,11.0,10.0,6.0,3.0,1.0,30.0,60.0,23.0,17.0,0.0,41.0,24.0,11.0,0.0,0.0,19.0,55.0,15.0,52.0,2.0,15.0,30.0,22.0,52.0,7.0,6.0,13.0,8.0,10.0,18.0,2.0
Karnataka,Bijapur,16.84015316666667,75.95909166666665,417,255230,984.0,34.0,42.0,26.0,4.0,80.0,53.0,56.0,50.0,52.0,48.0,47.0,96.0,1.0,1.0,0.0,1.0,0.0,1.0,0.0,21.0,2.0,0.0,3.0,86.0,14.0,29.0,1.0,12.0,4.0,7.0,9.0,11.0,9.0,6.0,3.0,3.0,1.0,0.0,67.0,66.0,25.0,9.0,0.0,3.0,71.0,5.0,1.0,5.0,5.0,13.0,21.0,66.0,3.0,21.0,38.0,28.0,66.0,5.0,2.0,7.0,1.0,2.0,4.0,3.0
Karnataka,Bijapur,16.84015316666667,75.95909166666665,557,2177331,960.0,57.0,66.0,49.0,20.0,2.0,43.0,52.0,33.0,82.0,18.0,57.0,82.0,17.0,0.0,0.0,0.0,0.0,0.0,0.0,62.0,11.0,1.0,7.0,75.0,25.0,31.0,2.0,11.0,13.0,31.0,54.0,12.0,22.0,7.0,9.0,6.0,5.0,1.0,37.0,59.0,24.0,16.0,0.0,37.0,27.0,10.0,0.0,1.0,14.0,56.0,15.0,51.0,3.0,15.0,29.0,22.0,51.0,7.0,6.0,13.0,8.0,10.0,18.0,3.0
Karnataka,Chikmagalur,13.425288289676422,75.67626502311249,570,1137961,1008.0,72.0,77.0,67.0,22.0,4.0,50.0,63.0,36.0,85.0,15.0,50.0,88.0,9.0,2.0,0.0,0.0,0.0,0.0,0.0,61.0,19.0,1.0,5.0,79.0,21.0,19.0,4.0,13.0,15.0,43.0,50.0,10.0,24.0,15.0,16.0,9.0,7.0,1.0,19.0,50.0,30.0,20.0,0.0,47.0,12.0,6.0,1.0,1.0,43.0,63.0,12.0,53.0,8.0,12.0,27.0,26.0,53.0,7.0,4.0,11.0,6.0,10.0,16.0,8.0
Karnataka,Chitradurga,14.29102220394736,76.57821957236843,566,1659456,974.0,66.0,72.0,59.0,23.0,18.0,52.0,61.0,42.0,78.0,22.0,48.0,92.0,8.0,0.0,0.0,0.0,0.0,0.0,0.0,69.0,14.0,1.0,6.0,78.0,22.0,23.0,2.0,11.0,13.0,39.0,46.0,12.0,21.0,12.0,13.0,8.0,5.0,1.0,28.0,54.0,28.0,18.0,0.0,52.0,25.0,0.0,0.0,0.0,24.0,61.0,15.0,52.0,3.0,15.0,29.0,22.0,52.0,7.0,5.0,12.0,7.0,11.0,18.0,3.0
Karnataka,Davanagere,14.330414586709884,75.91723841166937,567,1945497,972.0,67.0,73.0,61.0,20.0,12.0,45.0,59.0,30.0,81.0,19.0,55.0,85.0,14.0,0.0,0.0,0.0,0.0,0.0,0.0,70.0,19.0,1.0,7.0,67.0,33.0,28.0,3.0,8.0,17.0,48.0,54.0,12.0,23.0,11.0,14.0,8.0,6.0,2.0,24.0,55.0,28.0,17.0,0.0,53.0,21.0,1.0,0.0,1.0,35.0,67.0,13.0,52.0,3.0,13.0,28.0,24.0,52.0,8.0,6.0,13.0,8.0,11.0,19.0,3.0
Karnataka,Dharwad,15.343831376975173,75.13831264108359,562,1847023,971.0,70.0,76.0,65.0,10.0,5.0,42.0,58.0,26.0,88.0,12.0,58.0,75.0,21.0,2.0,0.0,0.0,2.0,0.0,0.0,72.0,29.0,3.0,10.0,41.0,59.0,23.0,4.0,16.0,19.0,48.0,55.0,14.0,21.0,10.0,13.0,8.0,8.0,2.0,24.0,55.0,27.0,17.0,0.0,62.0,8.0,0.0,0.0,1.0,44.0,72.0,8.0,49.0,8.0,8.0,23.0,27.0,49.0,12.0,5.0,17.0,7.0,11.0,18.0,8.0
Karnataka,Gadag,15.507128256880746,75.64861302752298,561,1064570,982.0,66.0,74.0,57.0,16.0,6.0,47.0,58.0,35.0,85.0,15.0,53.0,85.0,13.0,0.0,0.0,0.0,1.0,0.0,0.0,68.0,11.0,1.0,5.0,62.0,38.0,25.0,2.0,10.0,11.0,36.0,44.0,12.0,24.0,11.0,10.0,6.0,4.0,1.0,30.0,57.0,26.0,17.0,0.0,54.0,10.0,2.0,0.0,1.0,16.0,66.0,13.0,52.0,3.0,13.0,28.0,24.0,52.0,8.0,6.0,13.0,8.0,11.0,19.0,3.0
Karnataka,Gulbarga,17.070459515951594,76.87503850385033,579,2566326,971.0,56.0,64.0,47.0,25.0,3.0,42.0,52.0,32.0,78.0,22.0,58.0,78.0,20.0,0.0,0.0,0.0,0.0,0.0,1.0,67.0,13.0,2.0,9.0,67.0,33.0,20.0,2.0,10.0,12.0,37.0,51.0,7.0,23.0,11.0,12.0,6.0,4.0,1.0,36.0,61.0,24.0,15.0,0.0,44.0,23.0,8.0,0.0,1.0,20.0,57.0,14.0,51.0,3.0,14.0,29.0,23.0,51.0,8.0,6.0,13.0,8.0,10.0,18.0,3.0
Karnataka,Hassan,12.945098749999998,76.11049549999997,574,1776421,1010.0,69.0,76.0,62.0,19.0,2.0,51.0,63.0,38.0,83.0,17.0,49.0,92.0,7.0,1.0,0.0,0.0,0.0,0.0,0.0,64.0,14.0,1.0,4.0,79.0,21.0,22.0,2.0,15.0,16.0,43.0,49.0,10.0,20.0,13.0,17.0,8.0,6.0,2.0,23.0,49.0,29.0,21.0,0.0,43.0,22.0,2.0,0.0,0.0,27.0,64.0,14.0,52.0,4.0,14.0,28.0,24.0,52.0,7.0,5.0,11.0,7.0,11.0,17.0,4.0
Karnataka,Haveri,14.737582809224318,75.3961230607966,564,1597668,950.0,68.0,74.0,62.0,14.0,9.0,46.0,60.0,31.0,82.0,18.0,54.0,80.0,19.0,0.0,0.0,0.0,1.0,0.0,0.0,72.0,10.0,1.0,4.0,76.0,24.0,29.0,1.0,9.0,12.0,37.0,47.0,15.0,27.0,13.0,10.0,5.0,4.0,1.0,24.0,57.0,27.0,17.0,0.0,59.0,17.0,0.0,0.0,1.0,29.0,70.0,16.0,51.0,2.0,16.0,30.0,22.0,51.0,7.0,6.0,12.0,8.0,10.0,18.0,2.0
Karnataka,Kodagu,12.39684468085106,75.79336595744688,576,554519,1019.0,74.0,78.0,71.0,13.0,10.0,50.0,63.0,38.0,93.0,7.0,50.0,81.0,16.0,3.0,0.0,0.0,0.0,0.0,0.0,53.0,19.0,2.0,5.0,85.0,15.0,9.0,8.0,31.0,10.0,39.0,49.0,10.0,21.0,14.0,17.0,11.0,8.0,2.0,17.0,50.0,29.0,21.0,0.0,31.0,8.0,18.0,1.0,1.0,53.0,59.0,12.0,52.0,10.0,12.0,27.0,25.0,52.0,8.0,4.0,12.0,5.0,9.0,14.0,10.0
Karnataka,Kolar,13.312799881235172,78.01376947743476,581,1536401,979.0,66.0,73.0,59.0,30.0,5.0,47.0,58.0,35.0,81.0,19.0,53.0,85.0,13.0,2.0,0.0,0.0,0.0,0.0,0.0,65.0,15.0,1.0,6.0,68.0,32.0,27.0,2.0,12.0,18.0,44.0,47.0,9.0,20.0,15.0,15.0,7.0,5.0,1.0,27.0,55.0,27.0,18.0,0.0,44.0,20.0,1.0,0.0,0.0,30.0,51.0,14.0,53.0,1.0,14.0,30.0,24.0,53.0,6.0,6.0,12.0,8.0,12.0,20.0,1.0
Karnataka,Koppal,15.651253271028034,76.1617048598131,560,1389920,986.0,58.0,67.0,49.0,19.0,12.0,47.0,55.0,39.0,78.0,22.0,53.0,88.0,12.0,0.0,0.0,0.0,0.0,0.0,0.0,66.0,9.0,1.0,5.0,81.0,19.0,29.0,2.0,8.0,13.0,34.0,49.0,16.0,25.0,9.0,8.0,5.0,3.0,1.0,33.0,62.0,24.0,15.0,0.0,55.0,17.0,2.0,0.0,1.0,14.0,65.0,17.0,51.0,2.0,17.0,31.0,21.0,51.0,7.0,6.0,12.0,8.0,10.0,18.0,2.0
Karnataka,Mandya,12.574901806239744,76.81570098522172,573,1805769,995.0,64.0,71.0,57.0,15.0,1.0,48.0,64.0,33.0,82.0,18.0,52.0,95.0,4.0,0.0,0.0,0.0,0.0,0.0,0.0,70.0,14.0,1.0,4.0,82.0,18.0,34.0,1.0,18.0,17.0,42.0,47.0,8.0,17.0,13.0,17.0,9.0,6.0,1.0,28.0,50.0,29.0,21.0,0.0,59.0,15.0,1.0,0.0,0.0,28.0,69.0,16.0,53.0,2.0,16.0,30.0,23.0,53.0,6.0,5.0,11.0,7.0,11.0,19.0,2.0
Karnataka,Mysore,12.248100259403367,76.52881802853437,577,3001127,985.0,65.0,70.0,60.0,18.0,11.0,44.0,61.0,26.0,82.0,18.0,56.0,88.0,10.0,1.0,0.0,1.0,0.0,0.0,0.0,70.0,30.0,3.0,9.0,59.0,41.0,27.0,4.0,20.0,23.0,48.0,51.0,7.0,19.0,14.0,16.0,8.0,8.0,1.0,27.0,53.0,29.0,18.0,0.0,62.0,11.0,1.0,0.0,0.0,41.0,66.0,11.0,50.0,7.0,11.0,24.0,25.0,50.0,11.0,5.0,15.0,7.0,11.0,17.0,7.0
Karnataka,Raichur,16.050795353982295,76.87368606194688,559,1928812,1000.0,51.0,60.0,42.0,21.0,19.0,47.0,55.0,39.0,80.0,20.0,53.0,85.0,14.0,1.0,0.0,0.0,0.0,0.0,0.0,69.0,11.0,1.0,7.0,72.0,28.0,27.0,2.0,9.0,15.0,36.0,53.0,8.0,22.0,9.0,9.0,5.0,3.0,1.0,44.0,62.0,24.0,14.0,0.0,48.0,17.0,4.0,1.0,2.0,16.0,63.0,16.0,50.0,3.0,16.0,30.0,19.0,50.0,8.0,6.0,14.0,9.0,8.0,17.0,3.0
Karnataka,Shimoga,14.063845885634592,75.17882078103197,568,1752753,998.0,72.0,77.0,67.0,18.0,4.0,45.0,61.0,28.0,84.0,16.0,55.0,84.0,13.0,2.0,0.0,0.0,1.0,0.0,0.0,66.0,23.0,2.0,6.0,64.0,36.0,30.0,4.0,12.0,20.0,47.0,54.0,11.0,22.0,17.0,14.0,8.0,6.0,1.0,20.0,52.0,29.0,19.0,0.0,47.0,8.0,14.0,1.0,0.0,52.0,67.0,11.0,52.0,6.0,11.0,26.0,26.0,52.0,9.0,5.0,13.0,7.0,11.0,18.0,6.0
Karnataka,Tumkur,13.592467760074973,77.02297966260545,571,2678980,984.0,68.0,74.0,61.0,19.0,8.0,51.0,62.0,39.0,80.0,20.0,49.0,90.0,9.0,0.0,0.0,0.0,0.0,0.0,0.0,63.0,13.0,1.0,5.0,77.0,23.0,31.0,2.0,15.0,15.0,36.0,42.0,10.0,19.0,15.0,16.0,8.0,5.0,1.0,26.0,50.0,28.0,21.0,0.0,48.0,22.0,1.0,0.0,0.0,23.0,58.0,15.0,52.0,3.0,15.0,29.0,22.0,52.0,7.0,5.0,13.0,8.0,10.0,18.0,3.0
Karnataka,Udupi,13.450404228534568,74.72009990316337,569,1177361,1094.0,79.0,83.0,75.0,6.0,4.0,44.0,60.0,29.0,90.0,10.0,56.0,86.0,8.0,6.0,0.0,0.0,0.0,0.0,0.0,58.0,22.0,2.0,6.0,70.0,30.0,21.0,6.0,20.0,17.0,45.0,57.0,12.0,23.0,14.0,15.0,9.0,9.0,2.0,17.0,48.0,29.0,23.0,0.0,12.0,3.0,43.0,0.0,0.0,56.0,60.0,10.0,50.0,12.0,10.0,25.0,25.0,50.0,11.0,3.0,15.0,5.0,8.0,13.0,12.0
Kerala,Alappuzha,9.542602965599087,76.38010796263319,598,2127789,1100.0,87.0,88.0,86.0,9.0,0.0,38.0,53.0,24.0,74.0,26.0,62.0,69.0,11.0,20.0,0.0,0.0,0.0,0.0,0.0,70.0,38.0,4.0,10.0,46.0,54.0,32.0,6.0,18.0,20.0,59.0,65.0,6.0,16.0,19.0,27.0,13.0,9.0,3.0,8.0,42.0,30.0,28.0,0.0,26.0,10.0,25.0,0.0,1.0,68.0,62.0,15.0,58.0,3.0,15.0,30.0,28.0,58.0,7.0,8.0,15.0,3.0,5.0,8.0,3.0
Kerala,Ernakulam,10.004879301987431,76.26957729035381,595,3282388,1027.0,87.0,88.0,86.0,8.0,1.0,38.0,56.0,20.0,85.0,15.0,62.0,46.0,16.0,38.0,0.0,0.0,0.0,0.0,0.0,66.0,43.0,8.0,16.0,31.0,69.0,21.0,12.0,23.0,27.0,59.0,63.0,7.0,14.0,18.0,23.0,13.0,14.0,4.0,9.0,43.0,31.0,26.0,0.0,39.0,1.0,19.0,0.0,0.0,66.0,63.0,10.0,56.0,6.0,10.0,25.0,31.0,56.0,7.0,7.0,15.0,6.0,6.0,12.0,6.0
Kerala,Idukki,9.80480963855423,77.04586641566264,596,1108974,1006.0,83.0,85.0,81.0,13.0,5.0,47.0,60.0,33.0,81.0,19.0,53.0,49.0,7.0,43.0,0.0,0.0,0.0,0.0,0.0,59.0,13.0,2.0,6.0,95.0,5.0,5.0,5.0,16.0,9.0,50.0,60.0,7.0,15.0,19.0,24.0,13.0,8.0,2.0,12.0,45.0,32.0,24.0,0.0,20.0,3.0,22.0,10.0,1.0,60.0,49.0,24.0,56.0,1.0,24.0,37.0,19.0,56.0,10.0,7.0,17.0,1.0,1.0,2.0,1.0
Kerala,Kannur,11.941523076923056,75.35209891725934,589,2523003,1136.0,85.0,86.0,84.0,3.0,2.0,33.0,52.0,16.0,84.0,16.0,67.0,60.0,29.0,10.0,0.0,0.0,0.0,0.0,0.0,59.0,13.0,4.0,10.0,35.0,65.0,8.0,5.0,27.0,9.0,49.0,58.0,8.0,19.0,19.0,21.0,12.0,8.0,2.0,11.0,47.0,29.0,23.0,0.0,7.0,2.0,46.0,1.0,0.0,61.0,57.0,12.0,58.0,1.0,12.0,29.0,29.0,58.0,6.0,8.0,14.0,6.0,8.0,15.0,1.0
Kerala,Kasaragod,12.33310309912974,75.07768497134369,588,1307375,1080.0,79.0,82.0,77.0,4.0,4.0,35.0,52.0,20.0,80.0,20.0,65.0,56.0,37.0,7.0,0.0,0.0,0.0,0.0,0.0,57.0,18.0,2.0,8.0,60.0,40.0,7.0,5.0,18.0,8.0,43.0,57.0,9.0,21.0,18.0,19.0,10.0,6.0,1.0,17.0,53.0,28.0,19.0,0.0,9.0,10.0,38.0,2.0,0.0,59.0,57.0,15.0,60.0,1.0,15.0,31.0,29.0,60.0,6.0,9.0,16.0,4.0,4.0,8.0,1.0
Kerala,Kollam,8.929388820570157,76.6360775852431,600,2635375,1113.0,85.0,86.0,84.0,12.0,0.0,35.0,52.0,19.0,76.0,24.0,65.0,64.0,19.0,16.0,0.0,0.0,0.0,0.0,0.0,68.0,28.0,3.0,9.0,57.0,43.0,17.0,6.0,13.0,16.0,57.0,62.0,7.0,16.0,22.0,23.0,12.0,9.0,2.0,9.0,45.0,30.0,25.0,0.0,19.0,1.0,36.0,0.0,0.0,68.0,58.0,17.0,58.0,3.0,17.0,31.0,27.0,58.0,8.0,9.0,17.0,2.0,3.0,5.0,3.0
Kerala,Kottayam,9.643701174068417,76.46059673302705,597,1974551,1039.0,89.0,89.0,88.0,8.0,1.0,37.0,55.0,20.0,82.0,18.0,63.0,50.0,6.0,43.0,0.0,0.0,0.0,0.0,0.0,68.0,28.0,6.0,12.0,71.0,29.0,11.0,11.0,17.0,18.0,60.0,67.0,6.0,14.0,19.0,25.0,15.0,11.0,3.0,7.0,41.0,30.0,29.0,0.0,16.0,1.0,26.0,1.0,0.0,68.0,61.0,16.0,59.0,3.0,16.0,30.0,29.0,59.0,8.0,9.0,17.0,3.0,2.0,6.0,3.0
Kerala,Kozhikode,11.392924270557026,75.71158720159153,591,3086293,1098.0,85.0,86.0,83.0,6.0,0.0,31.0,51.0,12.0,79.0,21.0,69.0,56.0,39.0,4.0,0.0,0.0,0.0,0.0,0.0,65.0,15.0,4.0,11.0,33.0,67.0,10.0,5.0,23.0,15.0,50.0,64.0,8.0,18.0,21.0,20.0,11.0,8.0,2.0,11.0,48.0,29.0,22.0,0.0,15.0,1.0,40.0,1.0,0.0,68.0,62.0,17.0,55.0,2.0,17.0,32.0,23.0,55.0,8.0,7.0,14.0,5.0,7.0,12.0,2.0
Kerala,Malappuram,10.97329875666072,75.93910775606876,592,4112920,1098.0,81.0,81.0,80.0,7.0,1.0,26.0,46.0,8.0,80.0,20.0,74.0,28.0,70.0,2.0,0.0,0.0,0.0,0.0,0.0,63.0,12.0,2.0,10.0,55.0,45.0,8.0,5.0,18.0,12.0,42.0,62.0,10.0,18.0,19.0,22.0,9.0,5.0,1.0,15.0,58.0,25.0,16.0,0.0,10.0,2.0,44.0,0.0,0.0,65.0,60.0,24.0,55.0,2.0,24.0,37.0,18.0,55.0,10.0,5.0,15.0,2.0,2.0,4.0,2.0
Kerala,Palakkad,10.784926903553291,76.49980490693744,593,2809934,1067.0,80.0,83.0,77.0,14.0,2.0,37.0,55.0,20.0,84.0,16.0,63.0,67.0,29.0,4.0,0.0,0.0,0.0,0.0,0.0,66.0,20.0,3.0,8.0,74.0,26.0,11.0,5.0,18.0,16.0,50.0,60.0,9.0,18.0,22.0,20.0,8.0,6.0,1.0,16.0,50.0,29.0,22.0,0.0,30.0,4.0,29.0,1.0,0.0,63.0,57.0,18.0,59.0,2.0,18.0,32.0,27.0,59.0,7.0,10.0,17.0,2.0,2.0,4.0,2.0
Kerala,Thiruvananthapuram,8.537101759082221,76.88711502868073,601,3301427,1087.0,84.0,86.0,83.0,11.0,1.0,37.0,55.0,21.0,75.0,25.0,63.0,66.0,14.0,19.0,0.0,0.0,0.0,0.0,1.0,67.0,29.0,6.0,13.0,48.0,52.0,12.0,8.0,23.0,19.0,56.0,60.0,7.0,15.0,20.0,22.0,12.0,12.0,2.0,10.0,45.0,30.0,25.0,0.0,27.0,2.0,31.0,0.0,0.0,67.0,52.0,13.0,57.0,5.0,13.0,28.0,29.0,57.0,7.0,9.0,16.0,4.0,5.0,9.0,5.0
Kerala,Thrissur,10.458932647907687,76.12321940836945,594,3121200,1108.0,86.0,87.0,85.0,10.0,0.0,35.0,53.0,19.0,85.0,15.0,65.0,58.0,17.0,24.0,0.0,0.0,0.0,0.0,0.0,69.0,32.0,5.0,13.0,32.0,68.0,24.0,8.0,25.0,21.0,59.0,64.0,7.0,14.0,17.0,27.0,12.0,11.0,2.0,10.0,45.0,30.0,25.0,0.0,19.0,6.0,31.0,0.0,0.0,69.0,68.0,11.0,58.0,3.0,11.0,28.0,31.0,58.0,8.0,7.0,15.0,8.0,4.0,12.0,3.0
Kerala,Wayanad,11.715277464788736,76.07587007042254,590,817420,1035.0,79.0,82.0,76.0,4.0,19.0,42.0,57.0,27.0,77.0,23.0,58.0,49.0,29.0,21.0,0.0,0.0,0.0,0.0,0.0,54.0,8.0,2.0,6.0,96.0,4.0,6.0,5.0,17.0,8.0,40.0,56.0,8.0,18.0,17.0,23.0,11.0,6.0,1.0,16.0,51.0,30.0,19.0,0.0,15.0,2.0,39.0,3.0,0.0,61.0,53.0,21.0,59.0,1.0,21.0,35.0,24.0,59.0,9.0,9.0,18.0,1.0,1.0,1.0,1.0
Madhya Pradesh,Anuppur,23.18184220430107,81.86560000000007,461,749237,976.0,58.0,67.0,49.0,10.0,48.0,46.0,55.0,38.0,66.0,34.0,54.0,92.0,3.0,0.0,0.0,0.0,0.0,5.0,0.0,39.0,11.0,1.0,3.0,71.0,29.0,41.0,1.0,13.0,14.0,20.0,27.0,16.0,16.0,13.0,8.0,6.0,4.0,0.0,37.0,59.0,26.0,15.0,0.0,14.0,34.0,28.0,1.0,1.0,14.0,17.0,21.0,70.0,1.0,21.0,39.0,31.0,70.0,7.0,0.0,7.0,0.0,1.0,1.0,1.0
Madhya Pradesh,Ashoknagar,24.63098846153845,77.82974493927134,459,845071,904.0,56.0,65.0,45.0,21.0,10.0,37.0,52.0,21.0,77.0,23.0,63.0,92.0,5.0,0.0,1.0,0.0,2.0,0.0,0.0,41.0,8.0,0.0,3.0,82.0,18.0,21.0,1.0,10.0,11.0,21.0,39.0,19.0,15.0,8.0,6.0,4.0,3.0,0.0,45.0,63.0,23.0,14.0,0.0,8.0,58.0,14.0,0.0,0.0,13.0,43.0,20.0,67.0,3.0,20.0,39.0,28.0,67.0,3.0,2.0,5.0,2.0,3.0,5.0,3.0
Madhya Pradesh,Balaghat,21.80020720640569,80.42170053380796,457,1701698,1021.0,67.0,74.0,61.0,7.0,23.0,52.0,58.0,47.0,59.0,41.0,48.0,89.0,2.0,0.0,0.0,4.0,0.0,3.0,0.0,59.0,6.0,0.0,3.0,85.0,15.0,54.0,1.0,11.0,10.0,18.0,21.0,17.0,18.0,14.0,10.0,7.0,4.0,0.0,29.0,57.0,27.0,16.0,0.0,8.0,46.0,28.0,0.0,0.0,16.0,38.0,20.0,67.0,2.0,20.0,39.0,28.0,67.0,4.0,2.0,6.0,2.0,3.0,5.0,2.0
Madhya Pradesh,Barwani,21.702135714285724,74.91004719710673,441,1385881,982.0,40.0,45.0,34.0,6.0,69.0,47.0,52.0,42.0,80.0,20.0,53.0,95.0,4.0,0.0,0.0,0.0,0.0,0.0,0.0,61.0,10.0,0.0,3.0,84.0,16.0,17.0,1.0,6.0,10.0,16.0,23.0,12.0,10.0,6.0,4.0,3.0,2.0,0.0,62.0,67.0,22.0,11.0,0.0,23.0,44.0,8.0,1.0,2.0,15.0,32.0,24.0,66.0,3.0,24.0,42.0,24.0,66.0,1.0,2.0,3.0,2.0,3.0,4.0,3.0
Madhya Pradesh,Betul,21.964626315789477,77.7873428189117,447,1575362,971.0,60.0,66.0,53.0,10.0,42.0,50.0,57.0,43.0,65.0,35.0,50.0,96.0,2.0,0.0,0.0,1.0,0.0,1.0,0.0,57.0,11.0,1.0,3.0,78.0,22.0,28.0,1.0,10.0,15.0,23.0,30.0,15.0,15.0,11.0,9.0,7.0,5.0,0.0,38.0,60.0,25.0,15.0,0.0,22.0,42.0,15.0,0.0,0.0,20.0,45.0,19.0,66.0,3.0,19.0,37.0,29.0,66.0,6.0,2.0,8.0,2.0,3.0,5.0,3.0
Madhya Pradesh,Bhind,26.35951126187245,78.7618324287653,420,1703005,837.0,64.0,73.0,54.0,22.0,0.0,31.0,49.0,8.0,81.0,19.0,69.0,94.0,4.0,0.0,0.0,1.0,1.0,0.0,0.0,30.0,9.0,0.0,4.0,75.0,25.0,46.0,1.0,12.0,13.0,21.0,49.0,15.0,19.0,15.0,10.0,7.0,4.0,1.0,29.0,61.0,23.0,15.0,0.0,11.0,63.0,8.0,0.0,0.0,19.0,51.0,21.0,63.0,3.0,21.0,40.0,23.0,63.0,2.0,3.0,6.0,3.0,5.0,8.0,3.0
Madhya Pradesh,Bhopal,23.480726143790854,77.39246623093679,444,2371061,918.0,70.0,74.0,65.0,15.0,3.0,37.0,52.0,20.0,81.0,19.0,63.0,74.0,22.0,1.0,0.0,1.0,1.0,0.0,0.0,65.0,40.0,6.0,14.0,17.0,83.0,23.0,9.0,18.0,30.0,48.0,51.0,12.0,15.0,15.0,11.0,9.0,14.0,2.0,23.0,59.0,26.0,14.0,0.0,41.0,23.0,2.0,0.0,0.0,50.0,60.0,8.0,51.0,13.0,8.0,23.0,28.0,51.0,10.0,6.0,15.0,6.0,7.0,13.0,13.0
Madhya Pradesh,Burhanpur,21.364567254408065,76.24460478589425,467,757847,951.0,54.0,60.0,48.0,8.0,30.0,43.0,55.0,32.0,84.0,16.0,57.0,73.0,24.0,0.0,0.0,3.0,0.0,0.0,0.0,63.0,23.0,1.0,3.0,65.0,35.0,21.0,1.0,6.0,13.0,33.0,31.0,14.0,16.0,9.0,8.0,6.0,4.0,1.0,43.0,62.0,24.0,14.0,0.0,53.0,18.0,7.0,0.0,1.0,28.0,62.0,16.0,61.0,4.0,16.0,35.0,27.0,61.0,5.0,4.0,9.0,4.0,6.0,10.0,4.0
Madhya Pradesh,Chhatarpur,24.813637376460004,79.56449299191374,425,1762375,883.0,54.0,61.0,45.0,23.0,4.0,43.0,51.0,33.0,74.0,26.0,57.0,95.0,4.0,0.0,0.0,0.0,1.0,0.0,0.0,37.0,8.0,0.0,3.0,80.0,20.0,42.0,1.0,14.0,10.0,18.0,38.0,16.0,14.0,9.0,7.0,5.0,4.0,0.0,45.0,63.0,22.0,14.0,0.0,5.0,42.0,29.0,0.0,0.0,12.0,26.0,21.0,64.0,3.0,21.0,40.0,24.0,64.0,2.0,3.0,5.0,3.0,4.0,7.0,3.0
Madhya Pradesh,Chhindwara,22.227966971713823,78.76413136439254,455,2090922,964.0,62.0,69.0,55.0,11.0,37.0,46.0,55.0,37.0,70.0,30.0,54.0,92.0,5.0,0.0,0.0,1.0,0.0,1.0,0.0,62.0,13.0,1.0,4.0,75.0,25.0,29.0,1.0,12.0,14.0,25.0,27.0,14.0,17.0,11.0,11.0,8.0,6.0,1.0,33.0,59.0,26.0,15.0,0.0,30.0,29.0,18.0,1.0,1.0,20.0,44.0,18.0,64.0,3.0,18.0,36.0,28.0,64.0,5.0,3.0,8.0,3.0,4.0,7.0,3.0
Madhya Pradesh,Damoh,23.76624407960196,79.47049303482588,428,1264219,910.0,59.0,67.0,50.0,19.0,13.0,45.0,56.0,34.0,68.0,32.0,55.0,94.0,4.0,0.0,0.0,0.0,2.0,0.0,0.0,51.0,6.0,0.0,3.0,82.0,18.0,31.0,1.0,12.0,8.0,18.0,28.0,16.0,18.0,12.0,8.0,5.0,3.0,0.0,38.0,61.0,25.0,14.0,0.0,10.0,42.0,25.0,1.0,3.0,12.0,24.0,21.0,66.0,3.0,21.0,40.0,26.0,66.0,2.0,2.0,4.0,2.0,3.0,6.0,3.0
Madhya Pradesh,Datia,25.90226439560441,78.63916571428574,422,786754,873.0,62.0,72.0,51.0,25.0,2.0,41.0,54.0,26.0,77.0,23.0,59.0,95.0,4.0,0.0,0.0,1.0,0.0,0.0,0.0,48.0,9.0,0.0,3.0,79.0,21.0,32.0,1.0,11.0,13.0,27.0,44.0,17.0,17.0,11.0,9.0,6.0,5.0,1.0,34.0,60.0,25.0,15.0,0.0,11.0,55.0,12.0,0.0,0.0,17.0,44.0,21.0,65.0,3.0,21.0,40.0,25.0,65.0,2.0,3.0,5.0,2.0,4.0,6.0,3.0
Madhya Pradesh,Dewas,22.7851110021322,76.46088805970157,437,1563715,942.0,59.0,68.0,49.0,19.0,17.0,47.0,56.0,38.0,71.0,29.0,53.0,88.0,11.0,0.0,0.0,0.0,0.0,0.0,0.0,72.0,16.0,1.0,4.0,73.0,27.0,31.0,2.0,9.0,21.0,33.0,45.0,17.0,15.0,10.0,9.0,6.0,4.0,0.0,39.0,60.0,25.0,15.0,0.0,17.0,51.0,10.0,0.0,0.0,30.0,51.0,18.0,64.0,4.0,18.0,36.0,28.0,64.0,5.0,3.0,8.0,3.0,4.0,7.0,4.0
Madhya Pradesh,Dhar,22.572681718963157,75.1105620736698,438,2185793,964.0,49.0,57.0,41.0,7.0,56.0,47.0,54.0,40.0,76.0,24.0,53.0,94.0,5.0,0.0,0.0,0.0,1.0,0.0,0.0,68.0,15.0,0.0,4.0,80.0,20.0,22.0,2.0,6.0,17.0,24.0,36.0,13.0,12.0,8.0,7.0,5.0,3.0,0.0,51.0,63.0,24.0,12.0,0.0,24.0,43.0,11.0,0.0,1.0,24.0,39.0,18.0,66.0,3.0,18.0,36.0,30.0,66.0,6.0,2.0,8.0,2.0,3.0,5.0,3.0
Madhya Pradesh,Dindori,22.83738437047757,81.04332966714911,453,704524,1002.0,54.0,63.0,44.0,6.0,65.0,55.0,58.0,53.0,64.0,36.0,45.0,86.0,1.0,1.0,0.0,0.0,0.0,12.0,0.0,27.0,2.0,0.0,3.0,96.0,4.0,12.0,1.0,11.0,4.0,6.0,11.0,15.0,16.0,12.0,7.0,4.0,2.0,0.0,43.0,60.0,26.0,15.0,0.0,5.0,40.0,24.0,2.0,2.0,4.0,5.0,23.0,70.0,1.0,23.0,42.0,28.0,70.0,3.0,1.0,4.0,1.0,1.0,1.0,1.0
Madhya Pradesh,Guna,24.49043927178156,77.2235895968791,458,1241519,912.0,53.0,62.0,43.0,16.0,15.0,41.0,52.0,30.0,69.0,31.0,59.0,94.0,4.0,0.0,0.0,0.0,1.0,0.0,0.0,51.0,12.0,1.0,4.0,75.0,25.0,27.0,2.0,13.0,15.0,28.0,42.0,17.0,13.0,7.0,7.0,4.0,4.0,1.0,48.0,64.0,23.0,13.0,0.0,16.0,51.0,16.0,0.0,1.0,17.0,42.0,20.0,65.0,4.0,20.0,38.0,27.0,65.0,3.0,3.0,5.0,2.0,4.0,6.0,4.0
Madhya Pradesh,Gwalior,26.04074441964285,78.12782433035713,421,2032036,864.0,67.0,74.0,59.0,19.0,4.0,34.0,50.0,14.0,82.0,18.0,66.0,90.0,7.0,0.0,1.0,0.0,1.0,0.0,0.0,69.0,37.0,4.0,10.0,39.0,61.0,44.0,5.0,12.0,28.0,52.0,57.0,13.0,13.0,11.0,11.0,9.0,11.0,1.0,31.0,60.0,26.0,14.0,0.0,37.0,41.0,3.0,0.0,0.0,50.0,63.0,12.0,57.0,9.0,12.0,28.0,29.0,57.0,5.0,5.0,11.0,5.0,7.0,12.0,9.0
Madhya Pradesh,Harda,22.227659781121783,77.07022571819435,448,570465,935.0,62.0,69.0,54.0,16.0,28.0,40.0,53.0,27.0,71.0,29.0,60.0,92.0,7.0,0.0,0.0,0.0,0.0,0.0,0.0,66.0,15.0,1.0,4.0,78.0,22.0,20.0,2.0,5.0,21.0,32.0,44.0,17.0,17.0,12.0,9.0,6.0,5.0,1.0,34.0,61.0,24.0,15.0,0.0,15.0,46.0,13.0,0.0,1.0,36.0,49.0,21.0,64.0,5.0,21.0,39.0,26.0,64.0,2.0,3.0,5.0,2.0,3.0,6.0,5.0
Madhya Pradesh,Hoshangabad,22.595268801996703,78.02168094841929,449,1241350,914.0,65.0,72.0,58.0,17.0,16.0,39.0,53.0,22.0,76.0,24.0,61.0,95.0,4.0,0.0,0.0,0.0,0.0,0.0,0.0,63.0,19.0,1.0,5.0,66.0,34.0,34.0,2.0,7.0,21.0,36.0,44.0,14.0,16.0,13.0,11.0,8.0,7.0,1.0,30.0,59.0,26.0,15.0,0.0,21.0,47.0,11.0,0.0,0.0,39.0,53.0,18.0,63.0,5.0,18.0,36.0,27.0,63.0,3.0,4.0,6.0,3.0,5.0,8.0,5.0
Madhya Pradesh,Indore,22.680265752128648,75.9133801324502,439,3276697,928.0,70.0,76.0,65.0,17.0,7.0,39.0,55.0,21.0,90.0,10.0,61.0,83.0,13.0,1.0,1.0,0.0,2.0,0.0,0.0,75.0,53.0,6.0,14.0,25.0,75.0,40.0,8.0,25.0,36.0,59.0,61.0,14.0,15.0,12.0,12.0,10.0,12.0,1.0,23.0,57.0,27.0,15.0,0.0,37.0,37.0,1.0,0.0,0.0,61.0,69.0,9.0,54.0,11.0,9.0,25.0,29.0,54.0,8.0,6.0,13.0,5.0,7.0,12.0,11.0
Madhya Pradesh,Jabalpur,23.18525572327043,79.98328754716981,451,2463289,929.0,71.0,77.0,65.0,14.0,15.0,41.0,55.0,25.0,74.0,26.0,59.0,88.0,8.0,1.0,1.0,0.0,1.0,1.0,0.0,72.0,31.0,3.0,9.0,44.0,56.0,43.0,4.0,16.0,25.0,46.0,44.0,12.0,16.0,14.0,12.0,10.0,11.0,1.0,24.0,56.0,28.0,16.0,0.0,37.0,40.0,4.0,0.0,0.0,46.0,52.0,12.0,58.0,8.0,12.0,29.0,29.0,58.0,5.0,5.0,10.0,4.0,7.0,11.0,8.0
Madhya Pradesh,Jhabua,22.419578015397768,74.40921616766468,464,1025048,990.0,34.0,42.0,27.0,2.0,87.0,50.0,52.0,49.0,72.0,28.0,50.0,94.0,2.0,4.0,0.0,0.0,1.0,0.0,0.0,53.0,7.0,0.0,2.0,90.0,10.0,13.0,1.0,4.0,9.0,10.0,26.0,9.0,7.0,4.0,4.0,3.0,2.0,0.0,72.0,67.0,22.0,12.0,0.0,9.0,63.0,11.0,0.0,2.0,10.0,20.0,25.0,69.0,2.0,25.0,44.0,25.0,69.0,1.0,1.0,2.0,1.0,2.0,3.0,2.0
Madhya Pradesh,Katni,23.724416229116937,80.33819665871127,450,1292042,952.0,61.0,70.0,52.0,12.0,25.0,42.0,53.0,31.0,58.0,42.0,58.0,96.0,3.0,0.0,0.0,0.0,0.0,0.0,0.0,49.0,11.0,1.0,4.0,79.0,21.0,38.0,1.0,10.0,10.0,22.0,29.0,15.0,16.0,13.0,9.0,6.0,4.0,1.0,36.0,60.0,25.0,14.0,0.0,14.0,55.0,12.0,0.0,0.0,16.0,21.0,18.0,65.0,4.0,18.0,36.0,30.0,65.0,5.0,2.0,8.0,2.0,3.0,5.0,4.0
Madhya Pradesh,Mandla,22.70348712446353,80.38600543633753,454,1054905,1008.0,57.0,66.0,49.0,5.0,58.0,53.0,57.0,49.0,58.0,42.0,47.0,81.0,2.0,1.0,0.0,0.0,0.0,16.0,0.0,45.0,6.0,0.0,3.0,88.0,12.0,25.0,1.0,10.0,6.0,13.0,16.0,16.0,17.0,12.0,8.0,6.0,4.0,0.0,38.0,58.0,26.0,15.0,0.0,11.0,40.0,25.0,1.0,2.0,10.0,13.0,22.0,69.0,2.0,22.0,41.0,28.0,69.0,3.0,1.0,4.0,1.0,2.0,3.0,2.0
Madhya Pradesh,Mandsaur,24.19278764044944,75.43588667736759,433,1340411,963.0,62.0,74.0,50.0,19.0,2.0,51.0,58.0,43.0,79.0,21.0,49.0,89.0,9.0,0.0,0.0,0.0,1.0,0.0,0.0,62.0,12.0,1.0,3.0,79.0,21.0,32.0,1.0,9.0,16.0,29.0,43.0,19.0,16.0,11.0,8.0,6.0,4.0,0.0,35.0,58.0,26.0,16.0,0.0,26.0,20.0,25.0,0.0,0.0,18.0,36.0,22.0,66.0,3.0,22.0,41.0,25.0,66.0,2.0,2.0,4.0,2.0,3.0,5.0,3.0
Madhya Pradesh,Morena,26.37313504531724,77.88447341389724,419,1965970,840.0,60.0,70.0,48.0,21.0,1.0,34.0,49.0,17.0,77.0,23.0,66.0,95.0,4.0,0.0,0.0,0.0,0.0,0.0,0.0,32.0,11.0,0.0,5.0,77.0,23.0,42.0,1.0,9.0,12.0,22.0,47.0,15.0,15.0,12.0,9.0,6.0,4.0,0.0,38.0,64.0,23.0,13.0,0.0,12.0,68.0,7.0,0.0,0.0,18.0,44.0,25.0,61.0,3.0,25.0,41.0,20.0,61.0,2.0,3.0,5.0,2.0,4.0,6.0,3.0
Madhya Pradesh,Neemuch,24.70311893333336,75.06608186666664,432,826067,954.0,62.0,73.0,50.0,13.0,9.0,51.0,58.0,43.0,86.0,14.0,49.0,90.0,8.0,0.0,0.0,0.0,2.0,0.0,0.0,60.0,14.0,1.0,3.0,72.0,28.0,35.0,2.0,7.0,20.0,30.0,43.0,17.0,16.0,10.0,9.0,7.0,5.0,1.0,36.0,58.0,26.0,16.0,0.0,31.0,21.0,18.0,0.0,0.0,19.0,34.0,18.0,64.0,4.0,18.0,36.0,28.0,64.0,4.0,3.0,8.0,3.0,4.0,7.0,4.0
Madhya Pradesh,Panna,24.451325840092657,80.21133001158752,426,1016520,905.0,54.0,62.0,46.0,20.0,17.0,42.0,52.0,32.0,64.0,36.0,58.0,96.0,3.0,0.0,0.0,0.0,0.0,0.0,0.0,26.0,5.0,0.0,3.0,89.0,11.0,33.0,1.0,15.0,6.0,11.0,29.0,17.0,14.0,10.0,7.0,5.0,3.0,0.0,43.0,63.0,23.0,14.0,0.0,7.0,46.0,24.0,1.0,2.0,8.0,16.0,23.0,68.0,2.0,23.0,42.0,26.0,68.0,1.0,2.0,3.0,1.0,2.0,4.0,2.0
Madhya Pradesh,Raisen,23.292518206521724,78.16305495923909,446,1331597,901.0,62.0,68.0,54.0,17.0,15.0,39.0,53.0,23.0,71.0,29.0,61.0,90.0,9.0,0.0,0.0,0.0,1.0,0.0,0.0,60.0,11.0,0.0,3.0,77.0,23.0,20.0,2.0,9.0,15.0,27.0,41.0,19.0,16.0,11.0,9.0,5.0,4.0,0.0,35.0,63.0,24.0,14.0,0.0,17.0,57.0,9.0,0.0,0.0,25.0,47.0,21.0,66.0,2.0,21.0,41.0,25.0,66.0,2.0,3.0,5.0,2.0,4.0,6.0,2.0
Madhya Pradesh,Rajgarh,23.785499026425583,76.66431223922116,442,1545814,956.0,52.0,62.0,42.0,19.0,3.0,48.0,54.0,42.0,63.0,37.0,52.0,93.0,7.0,0.0,0.0,0.0,0.0,0.0,0.0,58.0,8.0,0.0,3.0,83.0,17.0,21.0,1.0,8.0,11.0,19.0,37.0,17.0,12.0,7.0,7.0,5.0,4.0,0.0,49.0,61.0,23.0,16.0,0.0,11.0,43.0,29.0,0.0,0.0,14.0,37.0,21.0,67.0,2.0,21.0,40.0,27.0,67.0,3.0,2.0,5.0,2.0,3.0,5.0,2.0
Madhya Pradesh,Ratlam,23.503562290502792,75.14895782122909,434,1455069,971.0,57.0,66.0,48.0,14.0,28.0,47.0,56.0,39.0,68.0,32.0,53.0,87.0,10.0,0.0,0.0,0.0,2.0,0.0,0.0,57.0,18.0,1.0,4.0,71.0,29.0,29.0,2.0,7.0,18.0,29.0,39.0,16.0,13.0,9.0,8.0,6.0,5.0,0.0,43.0,60.0,25.0,15.0,0.0,25.0,40.0,11.0,0.0,1.0,26.0,41.0,19.0,63.0,5.0,19.0,37.0,26.0,63.0,2.0,3.0,6.0,3.0,5.0,7.0,5.0
Madhya Pradesh,Rewa,24.861184625158856,81.57572465057183,430,2365106,931.0,61.0,69.0,52.0,16.0,13.0,42.0,50.0,33.0,64.0,36.0,58.0,96.0,4.0,0.0,0.0,0.0,0.0,0.0,0.0,41.0,7.0,1.0,5.0,85.0,15.0,49.0,2.0,21.0,11.0,18.0,38.0,15.0,15.0,14.0,9.0,8.0,5.0,1.0,34.0,62.0,23.0,15.0,0.0,7.0,63.0,15.0,1.0,0.0,20.0,18.0,19.0,66.0,3.0,19.0,36.0,30.0,66.0,6.0,2.0,8.0,2.0,3.0,4.0,3.0
Madhya Pradesh,Sagar,23.800318709677374,78.71940357771273,427,2378458,893.0,65.0,72.0,57.0,21.0,9.0,42.0,54.0,29.0,77.0,23.0,58.0,92.0,4.0,0.0,0.0,0.0,3.0,0.0,0.0,60.0,11.0,1.0,4.0,73.0,27.0,28.0,2.0,13.0,12.0,26.0,35.0,15.0,19.0,13.0,9.0,6.0,5.0,1.0,31.0,62.0,24.0,14.0,0.0,18.0,39.0,25.0,0.0,0.0,21.0,41.0,19.0,63.0,4.0,19.0,37.0,26.0,63.0,2.0,3.0,6.0,3.0,5.0,8.0,4.0
Madhya Pradesh,Satna,24.62777621776502,80.75547048710598,429,2228935,926.0,62.0,69.0,53.0,18.0,14.0,41.0,51.0,30.0,67.0,33.0,59.0,97.0,3.0,0.0,0.0,0.0,0.0,0.0,0.0,51.0,10.0,1.0,4.0,80.0,20.0,44.0,2.0,14.0,11.0,20.0,37.0,16.0,15.0,14.0,9.0,7.0,5.0,1.0,33.0,61.0,24.0,15.0,0.0,9.0,60.0,12.0,0.0,0.0,25.0,21.0,18.0,65.0,3.0,18.0,36.0,29.0,65.0,5.0,2.0,7.0,2.0,3.0,5.0,3.0
Madhya Pradesh,Sehore,22.9297199679658,77.06780202883085,445,1311332,918.0,60.0,69.0,50.0,21.0,11.0,45.0,53.0,35.0,63.0,37.0,55.0,89.0,11.0,0.0,0.0,0.0,0.0,0.0,0.0,64.0,9.0,0.0,3.0,82.0,18.0,25.0,2.0,7.0,18.0,30.0,43.0,15.0,14.0,11.0,9.0,6.0,4.0,1.0,40.0,62.0,23.0,14.0,0.0,13.0,48.0,14.0,0.0,0.0,24.0,44.0,20.0,67.0,2.0,20.0,39.0,27.0,67.0,3.0,2.0,6.0,2.0,3.0,5.0,2.0
Madhya Pradesh,Seoni,22.33230487804874,79.66053863928111,456,1379131,982.0,63.0,70.0,55.0,9.0,38.0,50.0,57.0,42.0,58.0,42.0,50.0,83.0,6.0,0.0,0.0,1.0,0.0,10.0,0.0,60.0,7.0,0.0,3.0,88.0,12.0,37.0,1.0,7.0,10.0,17.0,22.0,17.0,18.0,11.0,9.0,6.0,4.0,0.0,34.0,59.0,26.0,15.0,0.0,17.0,40.0,23.0,0.0,0.0,18.0,29.0,22.0,69.0,2.0,22.0,41.0,27.0,69.0,2.0,1.0,4.0,1.0,2.0,3.0,2.0
Madhya Pradesh,Shahdol,23.44859864559819,81.4596831828442,460,1066063,974.0,57.0,65.0,49.0,8.0,45.0,46.0,54.0,38.0,49.0,51.0,54.0,94.0,4.0,0.0,0.0,0.0,0.0,2.0,0.0,39.0,8.0,1.0,4.0,80.0,20.0,45.0,1.0,18.0,10.0,16.0,25.0,15.0,15.0,12.0,8.0,6.0,4.0,1.0,40.0,61.0,25.0,14.0,0.0,9.0,41.0,33.0,0.0,1.0,15.0,16.0,16.0,60.0,3.0,16.0,35.0,25.0,60.0,5.0,5.0,10.0,4.0,7.0,11.0,3.0
Madhya Pradesh,Shajapur,23.566620317220547,76.33555181268885,436,1512681,938.0,59.0,70.0,48.0,23.0,3.0,47.0,55.0,39.0,71.0,29.0,53.0,87.0,12.0,0.0,0.0,0.0,1.0,0.0,0.0,60.0,8.0,0.0,3.0,81.0,19.0,27.0,1.0,8.0,13.0,23.0,42.0,19.0,17.0,10.0,8.0,5.0,3.0,0.0,38.0,60.0,24.0,16.0,0.0,15.0,43.0,18.0,0.0,0.0,18.0,43.0,21.0,66.0,2.0,21.0,41.0,26.0,66.0,2.0,2.0,5.0,2.0,4.0,6.0,2.0
Madhya Pradesh,Sheopur,25.78014810996563,77.16911116838484,418,687861,901.0,48.0,58.0,37.0,16.0,23.0,40.0,51.0,29.0,71.0,29.0,60.0,93.0,6.0,0.0,1.0,0.0,0.0,0.0,0.0,42.0,7.0,0.0,3.0,85.0,15.0,18.0,1.0,7.0,10.0,17.0,32.0,13.0,10.0,6.0,5.0,4.0,3.0,0.0,58.0,65.0,23.0,12.0,0.0,11.0,63.0,6.0,0.0,1.0,11.0,22.0,23.0,67.0,2.0,23.0,42.0,25.0,67.0,1.0,2.0,3.0,2.0,3.0,5.0,2.0
Madhya Pradesh,Shivpuri,25.37802451874367,77.74861600810549,423,1726050,877.0,52.0,62.0,41.0,19.0,13.0,44.0,52.0,35.0,76.0,24.0,56.0,96.0,3.0,0.0,0.0,0.0,1.0,0.0,0.0,34.0,8.0,0.0,4.0,85.0,15.0,29.0,1.0,10.0,11.0,16.0,34.0,17.0,14.0,8.0,6.0,4.0,3.0,0.0,48.0,64.0,23.0,13.0,0.0,9.0,49.0,23.0,0.0,0.0,12.0,26.0,22.0,66.0,3.0,22.0,41.0,25.0,66.0,2.0,2.0,4.0,2.0,3.0,5.0,3.0
Madhya Pradesh,Sidhi,24.17547189952905,82.1053783359498,462,1127033,957.0,53.0,61.0,45.0,12.0,28.0,41.0,49.0,32.0,60.0,40.0,59.0,96.0,3.0,0.0,0.0,0.0,0.0,1.0,0.0,37.0,3.0,0.0,4.0,91.0,9.0,33.0,1.0,19.0,7.0,10.0,30.0,16.0,15.0,11.0,7.0,5.0,3.0,0.0,42.0,64.0,23.0,13.0,0.0,3.0,57.0,23.0,0.0,1.0,6.0,10.0,16.0,64.0,4.0,16.0,33.0,31.0,64.0,7.0,3.0,10.0,2.0,3.0,5.0,4.0
Madhya Pradesh,Tikamgarh,25.14099852104666,78.89357064846428,424,1445166,901.0,52.0,60.0,42.0,25.0,5.0,45.0,53.0,37.0,72.0,28.0,55.0,96.0,3.0,0.0,0.0,0.0,1.0,0.0,0.0,35.0,6.0,0.0,3.0,84.0,16.0,40.0,1.0,13.0,9.0,16.0,37.0,15.0,14.0,10.0,6.0,4.0,3.0,0.0,48.0,62.0,24.0,14.0,0.0,5.0,42.0,31.0,0.0,0.0,8.0,25.0,21.0,67.0,2.0,21.0,40.0,27.0,67.0,3.0,2.0,5.0,2.0,3.0,5.0,2.0
Madhya Pradesh,Ujjain,23.319288862745065,75.80383717647058,435,1986864,955.0,62.0,72.0,53.0,26.0,2.0,45.0,56.0,34.0,76.0,24.0,55.0,86.0,12.0,0.0,0.0,0.0,1.0,0.0,0.0,66.0,25.0,2.0,6.0,61.0,39.0,33.0,2.0,9.0,22.0,37.0,51.0,16.0,15.0,10.0,9.0,7.0,6.0,1.0,36.0,58.0,26.0,16.0,0.0,26.0,42.0,8.0,0.0,0.0,34.0,53.0,16.0,62.0,6.0,16.0,34.0,28.0,62.0,4.0,4.0,8.0,3.0,5.0,9.0,6.0
Madhya Pradesh,Umaria,23.59601063063061,80.90879477477475,431,644758,950.0,55.0,64.0,46.0,9.0,47.0,45.0,53.0,36.0,48.0,52.0,55.0,96.0,2.0,0.0,0.0,0.0,0.0,1.0,0.0,40.0,8.0,0.0,4.0,82.0,18.0,39.0,1.0,16.0,9.0,13.0,23.0,16.0,16.0,13.0,7.0,5.0,3.0,0.0,40.0,63.0,25.0,13.0,0.0,11.0,41.0,31.0,0.0,1.0,12.0,14.0,18.0,66.0,3.0,18.0,36.0,30.0,66.0,6.0,2.0,8.0,2.0,3.0,4.0,3.0
Madhya Pradesh,Vidisha,23.82838307984792,77.9013507604563,443,1458875,896.0,59.0,67.0,51.0,20.0,5.0,38.0,52.0,22.0,72.0,28.0,62.0,88.0,10.0,0.0,0.0,0.0,1.0,0.0,0.0,48.0,11.0,1.0,3.0,78.0,22.0,19.0,2.0,8.0,15.0,26.0,40.0,18.0,16.0,9.0,8.0,5.0,5.0,1.0,39.0,63.0,23.0,14.0,0.0,13.0,56.0,10.0,0.0,0.0,20.0,51.0,21.0,65.0,3.0,21.0,40.0,25.0,65.0,2.0,3.0,5.0,2.0,4.0,6.0,3.0
